{"type": "FeatureCollection", "features": [{"type": "Feature", "geometry": {"type": "Point", "coordinates": [13.0287, 52.4262]}, "properties": {"URAU_CODE": "DE038C", "URAU_CATG": "C", "CNTR_CODE": "DE", "URAU_NAME": "Potsdam", "CITY_CPTL": null, "FUA_CODE": "DE001F", "AREA_SQM": 186957420.52118, "NUTS3_2021": "DE404", "FID": "DE038C"}, "id": "DE038C"}, {"type": "Feature", "geometry": {"type": "Point", "coordinates": [7.5795, 50.3485]}, "properties": {"URAU_CODE": "DE039C", "URAU_CATG": "C", "CNTR_CODE": "DE", "URAU_NAME": "Koblenz", "CITY_CPTL": null, "FUA_CODE": "DE039F", "AREA_SQM": 105947869.949878, "NUTS3_2021": "DEB11", "FID": "DE039C"}, "id": "DE039C"}, {"type": "Feature", "geometry": {"type": "Point", "coordinates": [8.5139, 50.5661]}, "properties": {"URAU_CODE": "DE076C", "URAU_CATG": "C", "CNTR_CODE": "DE", "URAU_NAME": "Wetzlar", "CITY_CPTL": null, "FUA_CODE": "DE076F", "AREA_SQM": 76064661.0510025, "NUTS3_2021": "DE722", "FID": "DE076C"}, "id": "DE076C"}, {"type": "Feature", "geometry": {"type": "Point", "coordinates": [8.4349, 49.3297]}, "properties": {"URAU_CODE": "DE077C", "URAU_CATG": "C", "CNTR_CODE": "DE", "URAU_NAME": "Speyer", "CITY_CPTL": null, "FUA_CODE": "DE077F", "AREA_SQM": 42900762.5880006, "NUTS3_2021": "DEB38", "FID": "DE077C"}, "id": "DE077C"}, {"type": "Feature", "geometry": {"type": "Point", "coordinates": [13.4152, 48.5821]}, "properties": {"URAU_CODE": "DE078C", "URAU_CATG": "C", "CNTR_CODE": "DE", "URAU_NAME": "Passau", "CITY_CPTL": null, "FUA_CODE": "DE078F", "AREA_SQM": 70103997.7384175, "NUTS3_2021": "DE222", "FID": "DE078C"}, "id": "DE078C"}, {"type": "Feature", "geometry": {"type": "Point", "coordinates": [33.0079, 34.7044]}, "properties": {"URAU_CODE": "CY003C", "URAU_CATG": "C", "CNTR_CODE": "CY", "URAU_NAME": "Lemesos", "CITY_CPTL": null, "FUA_CODE": "CY003F", "AREA_SQM": 125088207.690539, "NUTS3_2021": "CY000", "FID": "CY003C"}, "id": "CY003C"}, {"type": "Feature", "geometry": {"type": "Point", "coordinates": [12.3897, 51.3508]}, "properties": {"URAU_CODE": "DE008C", "URAU_CATG": "C", "CNTR_CODE": "DE", "URAU_NAME": "Leipzig", "CITY_CPTL": null, "FUA_CODE": "DE008F", "AREA_SQM": 298970956.549975, "NUTS3_2021": "DED51", "FID": "DE008C"}, "id": "DE008C"}, {"type": "Feature", "geometry": {"type": "Point", "coordinates": [12.2199, 54.2128]}, "properties": {"URAU_CODE": "DE040C", "URAU_CATG": "C", "CNTR_CODE": "DE", "URAU_NAME": "Rostock", "CITY_CPTL": null, "FUA_CODE": "DE040F", "AREA_SQM": 169260324.883864, "NUTS3_2021": "DE803", "FID": "DE040C"}, "id": "DE040C"}, {"type": "Feature", "geometry": {"type": "Point", "coordinates": [12.2311, 51.8537]}, "properties": {"URAU_CODE": "DE079C", "URAU_CATG": "C", "CNTR_CODE": "DE", "URAU_NAME": "Dessau-Roßlau", "CITY_CPTL": null, "FUA_CODE": "DE079F", "AREA_SQM": 246252602.043621, "NUTS3_2021": "DEE01", "FID": "DE079C"}, "id": "DE079C"}, {"type": "Feature", "geometry": {"type": "Point", "coordinates": [6.7347, 51.4396]}, "properties": {"URAU_CODE": "DE080C", "URAU_CATG": "C", "CNTR_CODE": "DE", "URAU_NAME": "Duisburg", "CITY_CPTL": null, "FUA_CODE": "DE006F", "AREA_SQM": 233121647.864582, "NUTS3_2021": "DEA12", "FID": "DE080C"}, "id": "DE080C"}, {"type": "Feature", "geometry": {"type": "Point", "coordinates": [14.466, 50.0668]}, "properties": {"URAU_CODE": "CZ001C", "URAU_CATG": "C", "CNTR_CODE": "CZ", "URAU_NAME": "Praha", "CITY_CPTL": "Y", "FUA_CODE": "CZ001F", "AREA_SQM": 496413576.224264, "NUTS3_2021": "CZ010", "FID": "CZ001C"}, "id": "CZ001C"}, {"type": "Feature", "geometry": {"type": "Point", "coordinates": [13.7834, 51.0664]}, "properties": {"URAU_CODE": "DE009C", "URAU_CATG": "C", "CNTR_CODE": "DE", "URAU_NAME": "Dresden", "CITY_CPTL": null, "FUA_CODE": "DE009F", "AREA_SQM": 328049659.808103, "NUTS3_2021": "DED21", "FID": "DE009C"}, "id": "DE009C"}, {"type": "Feature", "geometry": {"type": "Point", "coordinates": [7.4749, 51.5161]}, "properties": {"URAU_CODE": "DE010C", "URAU_CATG": "C", "CNTR_CODE": "DE", "URAU_NAME": "Dortmund", "CITY_CPTL": null, "FUA_CODE": "DE006F", "AREA_SQM": 279684788.692863, "NUTS3_2021": "DEA52", "FID": "DE010C"}, "id": "DE010C"}, {"type": "Feature", "geometry": {"type": "Point", "coordinates": [7.7607, 49.4328]}, "properties": {"URAU_CODE": "DE041C", "URAU_CATG": "C", "CNTR_CODE": "DE", "URAU_NAME": "Kaiserslautern", "CITY_CPTL": null, "FUA_CODE": "DE041F", "AREA_SQM": 140326625.425794, "NUTS3_2021": "DEB32", "FID": "DE041C"}, "id": "DE041C"}, {"type": "Feature", "geometry": {"type": "Point", "coordinates": [7.6697, 51.3869]}, "properties": {"URAU_CODE": "DE042C", "URAU_CATG": "C", "CNTR_CODE": "DE", "URAU_NAME": "Iserlohn", "CITY_CPTL": null, "FUA_CODE": "DE042F", "AREA_SQM": 125359524.281472, "NUTS3_2021": "DEA58", "FID": "DE042C"}, "id": "DE042C"}, {"type": "Feature", "geometry": {"type": "Point", "coordinates": [9.3265, 48.7412]}, "properties": {"URAU_CODE": "DE043C", "URAU_CATG": "C", "CNTR_CODE": "DE", "URAU_NAME": "Esslingen am Neckar", "CITY_CPTL": null, "FUA_CODE": "DE007F", "AREA_SQM": 46524546.9849744, "NUTS3_2021": "DE113", "FID": "DE043C"}, "id": "DE043C"}, {"type": "Feature", "geometry": {"type": "Point", "coordinates": [8.5003, 49.4994]}, "properties": {"URAU_CODE": "DE081C", "URAU_CATG": "C", "CNTR_CODE": "DE", "URAU_NAME": "Mannheim", "CITY_CPTL": null, "FUA_CODE": "DE081F", "AREA_SQM": 145114420.201864, "NUTS3_2021": "DE126", "FID": "DE081C"}, "id": "DE081C"}, {"type": "Feature", "geometry": {"type": "Point", "coordinates": [7.0712, 51.5539]}, "properties": {"URAU_CODE": "DE082C", "URAU_CATG": "C", "CNTR_CODE": "DE", "URAU_NAME": "Gelsenkirchen", "CITY_CPTL": null, "FUA_CODE": "DE006F", "AREA_SQM": 105299712.0385, "NUTS3_2021": "DEA32", "FID": "DE082C"}, "id": "DE082C"}, {"type": "Feature", "geometry": {"type": "Point", "coordinates": [7.6236, 51.9543]}, "properties": {"URAU_CODE": "DE083C", "URAU_CATG": "C", "CNTR_CODE": "DE", "URAU_NAME": "Münster", "CITY_CPTL": null, "FUA_CODE": "DE083F", "AREA_SQM": 303533140.572655, "NUTS3_2021": "DEA33", "FID": "DE083C"}, "id": "DE083C"}, {"type": "Feature", "geometry": {"type": "Point", "coordinates": [16.5888, 49.2067]}, "properties": {"URAU_CODE": "CZ002C", "URAU_CATG": "C", "CNTR_CODE": "CZ", "URAU_NAME": "Brno", "CITY_CPTL": null, "FUA_CODE": "CZ002F", "AREA_SQM": 229917229.11545, "NUTS3_2021": "CZ064", "FID": "CZ002C"}, "id": "CZ002C"}, {"type": "Feature", "geometry": {"type": "Point", "coordinates": [6.8101, 51.2355]}, "properties": {"URAU_CODE": "DE011C", "URAU_CATG": "C", "CNTR_CODE": "DE", "URAU_NAME": "Düsseldorf", "CITY_CPTL": null, "FUA_CODE": "DE011F", "AREA_SQM": 217451637.527717, "NUTS3_2021": "DEA11", "FID": "DE011C"}, "id": "DE011C"}, {"type": "Feature", "geometry": {"type": "Point", "coordinates": [8.9346, 50.1269]}, "properties": {"URAU_CODE": "DE044C", "URAU_CATG": "C", "CNTR_CODE": "DE", "URAU_NAME": "Hanau", "CITY_CPTL": null, "FUA_CODE": "DE005F", "AREA_SQM": 77292303.2752776, "NUTS3_2021": "DE719", "FID": "DE044C"}, "id": "DE044C"}, {"type": "Feature", "geometry": {"type": "Point", "coordinates": [8.0875, 53.5669]}, "properties": {"URAU_CODE": "DE045C", "URAU_CATG": "C", "CNTR_CODE": "DE", "URAU_NAME": "Wilhelmshaven", "CITY_CPTL": null, "FUA_CODE": "DE045F", "AREA_SQM": 107451265.130513, "NUTS3_2021": "DE945", "FID": "DE045C"}, "id": "DE045C"}, {"type": "Feature", "geometry": {"type": "Point", "coordinates": [9.2173, 48.9038]}, "properties": {"URAU_CODE": "DE046C", "URAU_CATG": "C", "CNTR_CODE": "DE", "URAU_NAME": "Ludwigsburg", "CITY_CPTL": null, "FUA_CODE": "DE007F", "AREA_SQM": 43250613.0937545, "NUTS3_2021": "DE115", "FID": "DE046C"}, "id": "DE046C"}, {"type": "Feature", "geometry": {"type": "Point", "coordinates": [12.9118, 50.8263]}, "properties": {"URAU_CODE": "DE084C", "URAU_CATG": "C", "CNTR_CODE": "DE", "URAU_NAME": "Chemnitz", "CITY_CPTL": null, "FUA_CODE": "DE084F", "AREA_SQM": 221038931.436868, "NUTS3_2021": "DED41", "FID": "DE084C"}, "id": "DE084C"}, {"type": "Feature", "geometry": {"type": "Point", "coordinates": [10.5242, 52.2753]}, "properties": {"URAU_CODE": "DE085C", "URAU_CATG": "C", "CNTR_CODE": "DE", "URAU_NAME": "Braunschweig", "CITY_CPTL": null, "FUA_CODE": "DE085F", "AREA_SQM": 192257209.084961, "NUTS3_2021": "DE911", "FID": "DE085C"}, "id": "DE085C"}, {"type": "Feature", "geometry": {"type": "Point", "coordinates": [18.2462, 49.8142]}, "properties": {"URAU_CODE": "CZ003C", "URAU_CATG": "C", "CNTR_CODE": "CZ", "URAU_NAME": "Ostrava", "CITY_CPTL": null, "FUA_CODE": "CZ003F", "AREA_SQM": 214334069.109788, "NUTS3_2021": "CZ080", "FID": "CZ003C"}, "id": "CZ003C"}, {"type": "Feature", "geometry": {"type": "Point", "coordinates": [13.3729, 49.7402]}, "properties": {"URAU_CODE": "CZ004C", "URAU_CATG": "C", "CNTR_CODE": "CZ", "URAU_NAME": "Plzeň", "CITY_CPTL": null, "FUA_CODE": "CZ004F", "AREA_SQM": 137607103.664825, "NUTS3_2021": "CZ032", "FID": "CZ004C"}, "id": "CZ004C"}, {"type": "Feature", "geometry": {"type": "Point", "coordinates": [8.7861, 53.1086]}, "properties": {"URAU_CODE": "DE012C", "URAU_CATG": "C", "CNTR_CODE": "DE", "URAU_NAME": "Bremen", "CITY_CPTL": null, "FUA_CODE": "DE012F", "AREA_SQM": 325707869.785349, "NUTS3_2021": "DE501", "FID": "DE012C"}, "id": "DE012C"}, {"type": "Feature", "geometry": {"type": "Point", "coordinates": [9.0475, 48.5276]}, "properties": {"URAU_CODE": "DE047C", "URAU_CATG": "C", "CNTR_CODE": "DE", "URAU_NAME": "Tübingen", "CITY_CPTL": null, "FUA_CODE": "DE047F", "AREA_SQM": 107989325.830179, "NUTS3_2021": "DE142", "FID": "DE047C"}, "id": "DE047C"}, {"type": "Feature", "geometry": {"type": "Point", "coordinates": [8.4536, 48.0558]}, "properties": {"URAU_CODE": "DE048C", "URAU_CATG": "C", "CNTR_CODE": "DE", "URAU_NAME": "Villingen-Schwenningen", "CITY_CPTL": null, "FUA_CODE": "DE048F", "AREA_SQM": 165137178.705132, "NUTS3_2021": "DE136", "FID": "DE048C"}, "id": "DE048C"}, {"type": "Feature", "geometry": {"type": "Point", "coordinates": [8.3968, 49.4821]}, "properties": {"URAU_CODE": "DE096C", "URAU_CATG": "C", "CNTR_CODE": "DE", "URAU_NAME": "Ludwigshafen am Rhein", "CITY_CPTL": null, "FUA_CODE": "DE081F", "AREA_SQM": 77994302.1870323, "NUTS3_2021": "DEB34", "FID": "DE096C"}, "id": "DE096C"}, {"type": "Feature", "geometry": {"type": "Point", "coordinates": [7.0154, 51.0531]}, "properties": {"URAU_CODE": "DE097C", "URAU_CATG": "C", "CNTR_CODE": "DE", "URAU_NAME": "Leverkusen", "CITY_CPTL": null, "FUA_CODE": "DE004F", "AREA_SQM": 78779686.8592694, "NUTS3_2021": "DEA24", "FID": "DE097C"}, "id": "DE097C"}, {"type": "Feature", "geometry": {"type": "Point", "coordinates": [8.2243, 53.1446]}, "properties": {"URAU_CODE": "DE098C", "URAU_CATG": "C", "CNTR_CODE": "DE", "URAU_NAME": "Oldenburg (Oldenburg)", "CITY_CPTL": null, "FUA_CODE": "DE098F", "AREA_SQM": 103706204.344604, "NUTS3_2021": "DE943", "FID": "DE098C"}, "id": "DE098C"}, {"type": "Feature", "geometry": {"type": "Point", "coordinates": [6.702, 51.173]}, "properties": {"URAU_CODE": "DE099C", "URAU_CATG": "C", "CNTR_CODE": "DE", "URAU_NAME": "Neuss", "CITY_CPTL": null, "FUA_CODE": "DE011F", "AREA_SQM": 98596033.3118048, "NUTS3_2021": "DEA1D", "FID": "DE099C"}, "id": "DE099C"}, {"type": "Feature", "geometry": {"type": "Point", "coordinates": [14.0392, 50.6584]}, "properties": {"URAU_CODE": "CZ005C", "URAU_CATG": "C", "CNTR_CODE": "CZ", "URAU_NAME": "Ústí nad Labem", "CITY_CPTL": null, "FUA_CODE": "CZ005F", "AREA_SQM": 93781679.0749079, "NUTS3_2021": "CZ042", "FID": "CZ005C"}, "id": "CZ005C"}, {"type": "Feature", "geometry": {"type": "Point", "coordinates": [17.2729, 49.5956]}, "properties": {"URAU_CODE": "CZ006C", "URAU_CATG": "C", "CNTR_CODE": "CZ", "URAU_NAME": "Olomouc", "CITY_CPTL": null, "FUA_CODE": "CZ006F", "AREA_SQM": 103218024.193653, "NUTS3_2021": "CZ071", "FID": "CZ006C"}, "id": "CZ006C"}, {"type": "Feature", "geometry": {"type": "Point", "coordinates": [9.7696, 52.3795]}, "properties": {"URAU_CODE": "DE013C", "URAU_CATG": "C", "CNTR_CODE": "DE", "URAU_NAME": "Hannover", "CITY_CPTL": null, "FUA_CODE": "DE013F", "AREA_SQM": 204382576.274762, "NUTS3_2021": "DE929", "FID": "DE013C"}, "id": "DE013C"}, {"type": "Feature", "geometry": {"type": "Point", "coordinates": [9.4693, 54.7939]}, "properties": {"URAU_CODE": "DE049C", "URAU_CATG": "C", "CNTR_CODE": "DE", "URAU_NAME": "Flensburg", "CITY_CPTL": null, "FUA_CODE": "DE049F", "AREA_SQM": 49286327.8559877, "NUTS3_2021": "DEF01", "FID": "DE049C"}, "id": "DE049C"}, {"type": "Feature", "geometry": {"type": "Point", "coordinates": [8.7538, 50.8056]}, "properties": {"URAU_CODE": "DE050C", "URAU_CATG": "C", "CNTR_CODE": "DE", "URAU_NAME": "Marburg", "CITY_CPTL": null, "FUA_CODE": "DE050F", "AREA_SQM": 124257598.4468, "NUTS3_2021": "DE724", "FID": "DE050C"}, "id": "DE050C"}, {"type": "Feature", "geometry": {"type": "Point", "coordinates": [10.785, 52.4107]}, "properties": {"URAU_CODE": "DE104C", "URAU_CATG": "C", "CNTR_CODE": "DE", "URAU_NAME": "Wolfsburg", "CITY_CPTL": null, "FUA_CODE": "DE104F", "AREA_SQM": 204913059.107634, "NUTS3_2021": "DE913", "FID": "DE104C"}, "id": "DE104C"}, {"type": "Feature", "geometry": {"type": "Point", "coordinates": [8.6123, 53.5447]}, "properties": {"URAU_CODE": "DE105C", "URAU_CATG": "C", "CNTR_CODE": "DE", "URAU_NAME": "Bremerhaven", "CITY_CPTL": null, "FUA_CODE": "DE105F", "AREA_SQM": 76712079.316562, "NUTS3_2021": "DE502", "FID": "DE105C"}, "id": "DE105C"}, {"type": "Feature", "geometry": {"type": "Point", "coordinates": [6.9577, 51.526]}, "properties": {"URAU_CODE": "DE106C", "URAU_CATG": "C", "CNTR_CODE": "DE", "URAU_NAME": "Bottrop", "CITY_CPTL": null, "FUA_CODE": "DE006F", "AREA_SQM": 100246710.155867, "NUTS3_2021": "DEA31", "FID": "DE106C"}, "id": "DE106C"}, {"type": "Feature", "geometry": {"type": "Point", "coordinates": [15.051, 50.7658]}, "properties": {"URAU_CODE": "CZ007C", "URAU_CATG": "C", "CNTR_CODE": "CZ", "URAU_NAME": "Liberec", "CITY_CPTL": null, "FUA_CODE": "CZ007F", "AREA_SQM": 105818302.000174, "NUTS3_2021": "CZ051", "FID": "CZ007C"}, "id": "CZ007C"}, {"type": "Feature", "geometry": {"type": "Point", "coordinates": [14.4648, 48.9837]}, "properties": {"URAU_CODE": "CZ008C", "URAU_CATG": "C", "CNTR_CODE": "CZ", "URAU_NAME": "České Budějovice", "CITY_CPTL": null, "FUA_CODE": "CZ008F", "AREA_SQM": 55569984.6023913, "NUTS3_2021": "CZ031", "FID": "CZ008C"}, "id": "CZ008C"}, {"type": "Feature", "geometry": {"type": "Point", "coordinates": [15.8437, 50.2079]}, "properties": {"URAU_CODE": "CZ009C", "URAU_CATG": "C", "CNTR_CODE": "CZ", "URAU_NAME": "Hradec Králové", "CITY_CPTL": null, "FUA_CODE": "CZ009F", "AREA_SQM": 105642593.101283, "NUTS3_2021": "CZ052", "FID": "CZ009C"}, "id": "CZ009C"}, {"type": "Feature", "geometry": {"type": "Point", "coordinates": [11.0792, 49.4364]}, "properties": {"URAU_CODE": "DE014C", "URAU_CATG": "C", "CNTR_CODE": "DE", "URAU_NAME": "Nürnberg", "CITY_CPTL": null, "FUA_CODE": "DE014F", "AREA_SQM": 187708717.644147, "NUTS3_2021": "DE254", "FID": "DE014C"}, "id": "DE014C"}, {"type": "Feature", "geometry": {"type": "Point", "coordinates": [9.15, 47.7068]}, "properties": {"URAU_CODE": "DE051C", "URAU_CATG": "C", "CNTR_CODE": "DE", "URAU_NAME": "Konstanz", "CITY_CPTL": null, "FUA_CODE": "DE051F", "AREA_SQM": 54035306.0240101, "NUTS3_2021": "DE138", "FID": "DE051C"}, "id": "DE051C"}, {"type": "Feature", "geometry": {"type": "Point", "coordinates": [9.9847, 54.0809]}, "properties": {"URAU_CODE": "DE052C", "URAU_CATG": "C", "CNTR_CODE": "DE", "URAU_NAME": "Neumünster", "CITY_CPTL": null, "FUA_CODE": "DE052F", "AREA_SQM": 71871807.8919564, "NUTS3_2021": "DEF04", "FID": "DE052C"}, "id": "DE052C"}, {"type": "Feature", "geometry": {"type": "Point", "coordinates": [10.7276, 53.8724]}, "properties": {"URAU_CODE": "DE089C", "URAU_CATG": "C", "CNTR_CODE": "DE", "URAU_NAME": "Lübeck", "CITY_CPTL": null, "FUA_CODE": "DE089F", "AREA_SQM": 211685061.214326, "NUTS3_2021": "DEF03", "FID": "DE089C"}, "id": "DE089C"}, {"type": "Feature", "geometry": {"type": "Point", "coordinates": [7.4975, 51.348]}, "properties": {"URAU_CODE": "DE090C", "URAU_CATG": "C", "CNTR_CODE": "DE", "URAU_NAME": "Hagen", "CITY_CPTL": null, "FUA_CODE": "DE006F", "AREA_SQM": 160346128.646923, "NUTS3_2021": "DEA53", "FID": "DE090C"}, "id": "DE090C"}, {"type": "Feature", "geometry": {"type": "Point", "coordinates": [9.4597, 51.3111]}, "properties": {"URAU_CODE": "DE091C", "URAU_CATG": "C", "CNTR_CODE": "DE", "URAU_NAME": "Kassel", "CITY_CPTL": null, "FUA_CODE": "DE091F", "AREA_SQM": 104616725.274873, "NUTS3_2021": "DE731", "FID": "DE091C"}, "id": "DE091C"}, {"type": "Feature", "geometry": {"type": "Point", "coordinates": [15.7649, 50.0305]}, "properties": {"URAU_CODE": "CZ010C", "URAU_CATG": "C", "CNTR_CODE": "CZ", "URAU_NAME": "Pardubice", "CITY_CPTL": null, "FUA_CODE": "CZ010F", "AREA_SQM": 82775039.862365, "NUTS3_2021": "CZ053", "FID": "CZ010C"}, "id": "CZ010C"}, {"type": "Feature", "geometry": {"type": "Point", "coordinates": [17.67, 49.2278]}, "properties": {"URAU_CODE": "CZ011C", "URAU_CATG": "C", "CNTR_CODE": "CZ", "URAU_NAME": "Zlín", "CITY_CPTL": null, "FUA_CODE": "CZ011F", "AREA_SQM": 102738768.552981, "NUTS3_2021": "CZ072", "FID": "CZ011C"}, "id": "CZ011C"}, {"type": "Feature", "geometry": {"type": "Point", "coordinates": [7.225, 51.4699]}, "properties": {"URAU_CODE": "DE015C", "URAU_CATG": "C", "CNTR_CODE": "DE", "URAU_NAME": "Bochum", "CITY_CPTL": null, "FUA_CODE": "DE006F", "AREA_SQM": 144833449.736934, "NUTS3_2021": "DEA51", "FID": "DE015C"}, "id": "DE015C"}, {"type": "Feature", "geometry": {"type": "Point", "coordinates": [8.5408, 52.011]}, "properties": {"URAU_CODE": "DE016C", "URAU_CATG": "C", "CNTR_CODE": "DE", "URAU_NAME": "Bielefeld", "CITY_CPTL": null, "FUA_CODE": "DE016F", "AREA_SQM": 259191280.534412, "NUTS3_2021": "DEA41", "FID": "DE016C"}, "id": "DE016C"}, {"type": "Feature", "geometry": {"type": "Point", "coordinates": [12.5184, 52.4021]}, "properties": {"URAU_CODE": "DE053C", "URAU_CATG": "C", "CNTR_CODE": "DE", "URAU_NAME": "Brandenburg an der Havel", "CITY_CPTL": null, "FUA_CODE": "DE053F", "AREA_SQM": 229504882.778756, "NUTS3_2021": "DE401", "FID": "DE053C"}, "id": "DE053C"}, {"type": "Feature", "geometry": {"type": "Point", "coordinates": [9.9428, 48.3813]}, "properties": {"URAU_CODE": "DE110C", "URAU_CATG": "C", "CNTR_CODE": "DE", "URAU_NAME": "Ulm", "CITY_CPTL": null, "FUA_CODE": "DE110F", "AREA_SQM": 119219748.777115, "NUTS3_2021": "DE144", "FID": "DE110C"}, "id": "DE110C"}, {"type": "Feature", "geometry": {"type": "Point", "coordinates": [8.7126, 48.8764]}, "properties": {"URAU_CODE": "DE111C", "URAU_CATG": "C", "CNTR_CODE": "DE", "URAU_NAME": "Pforzheim", "CITY_CPTL": null, "FUA_CODE": "DE111F", "AREA_SQM": 98260848.6688799, "NUTS3_2021": "DE129", "FID": "DE111C"}, "id": "DE111C"}, {"type": "Feature", "geometry": {"type": "Point", "coordinates": [14.1111, 50.1487]}, "properties": {"URAU_CODE": "CZ012C", "URAU_CATG": "C", "CNTR_CODE": "CZ", "URAU_NAME": "Kladno", "CITY_CPTL": null, "FUA_CODE": "CZ001F", "AREA_SQM": 37000055.4572888, "NUTS3_2021": "CZ020", "FID": "CZ012C"}, "id": "CZ012C"}, {"type": "Feature", "geometry": {"type": "Point", "coordinates": [12.8633, 50.2251]}, "properties": {"URAU_CODE": "CZ013C", "URAU_CATG": "C", "CNTR_CODE": "CZ", "URAU_NAME": "Karlovy Vary", "CITY_CPTL": null, "FUA_CODE": "CZ013F", "AREA_SQM": 58724639.4826675, "NUTS3_2021": "CZ041", "FID": "CZ013C"}, "id": "CZ013C"}, {"type": "Feature", "geometry": {"type": "Point", "coordinates": [15.5821, 49.4059]}, "properties": {"URAU_CODE": "CZ014C", "URAU_CATG": "C", "CNTR_CODE": "CZ", "URAU_NAME": "Jihlava", "CITY_CPTL": null, "FUA_CODE": "CZ014F", "AREA_SQM": 87980073.8191372, "NUTS3_2021": "CZ063", "FID": "CZ014C"}, "id": "CZ014C"}, {"type": "Feature", "geometry": {"type": "Point", "coordinates": [11.9685, 51.4798]}, "properties": {"URAU_CODE": "DE017C", "URAU_CATG": "C", "CNTR_CODE": "DE", "URAU_NAME": "Halle an der Saale", "CITY_CPTL": null, "FUA_CODE": "DE017F", "AREA_SQM": 135734296.489031, "NUTS3_2021": "DEE02", "FID": "DE017C"}, "id": "DE017C"}, {"type": "Feature", "geometry": {"type": "Point", "coordinates": [11.6413, 52.1165]}, "properties": {"URAU_CODE": "DE018C", "URAU_CATG": "C", "CNTR_CODE": "DE", "URAU_NAME": "Magdeburg", "CITY_CPTL": null, "FUA_CODE": "DE018F", "AREA_SQM": 200875234.946616, "NUTS3_2021": "DEE03", "FID": "DE018C"}, "id": "DE018C"}, {"type": "Feature", "geometry": {"type": "Point", "coordinates": [8.7122, 50.5893]}, "properties": {"URAU_CODE": "DE054C", "URAU_CATG": "C", "CNTR_CODE": "DE", "URAU_NAME": "Gießen", "CITY_CPTL": null, "FUA_CODE": "DE054F", "AREA_SQM": 72862724.6850083, "NUTS3_2021": "DE721", "FID": "DE054C"}, "id": "DE054C"}, {"type": "Feature", "geometry": {"type": "Point", "coordinates": [10.4164, 53.2411]}, "properties": {"URAU_CODE": "DE055C", "URAU_CATG": "C", "CNTR_CODE": "DE", "URAU_NAME": "Lüneburg", "CITY_CPTL": null, "FUA_CODE": "DE002F", "AREA_SQM": 71147608.0151394, "NUTS3_2021": "DE935", "FID": "DE055C"}, "id": "DE055C"}, {"type": "Feature", "geometry": {"type": "Point", "coordinates": [11.5854, 49.9376]}, "properties": {"URAU_CODE": "DE056C", "URAU_CATG": "C", "CNTR_CODE": "DE", "URAU_NAME": "Bayreuth", "CITY_CPTL": null, "FUA_CODE": "DE056F", "AREA_SQM": 67008699.3678328, "NUTS3_2021": "DE242", "FID": "DE056C"}, "id": "DE056C"}, {"type": "Feature", "geometry": {"type": "Point", "coordinates": [9.1823, 49.1527]}, "properties": {"URAU_CODE": "DE107C", "URAU_CATG": "C", "CNTR_CODE": "DE", "URAU_NAME": "Heilbronn", "CITY_CPTL": null, "FUA_CODE": "DE107F", "AREA_SQM": 100611965.362612, "NUTS3_2021": "DE117", "FID": "DE107C"}, "id": "DE107C"}, {"type": "Feature", "geometry": {"type": "Point", "coordinates": [7.224, 51.1827]}, "properties": {"URAU_CODE": "DE108C", "URAU_CATG": "C", "CNTR_CODE": "DE", "URAU_NAME": "Remscheid", "CITY_CPTL": null, "FUA_CODE": "DE108F", "AREA_SQM": 74084071.7189669, "NUTS3_2021": "DEA18", "FID": "DE108C"}, "id": "DE108C"}, {"type": "Feature", "geometry": {"type": "Point", "coordinates": [8.7808, 50.0911]}, "properties": {"URAU_CODE": "DE109C", "URAU_CATG": "C", "CNTR_CODE": "DE", "URAU_NAME": "Offenbach am Main", "CITY_CPTL": null, "FUA_CODE": "DE005F", "AREA_SQM": 45357130.9288515, "NUTS3_2021": "DE713", "FID": "DE109C"}, "id": "DE109C"}, {"type": "Feature", "geometry": {"type": "Point", "coordinates": [18.439, 49.7856]}, "properties": {"URAU_CODE": "CZ015C", "URAU_CATG": "C", "CNTR_CODE": "CZ", "URAU_NAME": "Havířov", "CITY_CPTL": null, "FUA_CODE": "CZ003F", "AREA_SQM": 32138609.1924824, "NUTS3_2021": "CZ080", "FID": "CZ015C"}, "id": "CZ015C"}, {"type": "Feature", "geometry": {"type": "Point", "coordinates": [13.6148, 50.5143]}, "properties": {"URAU_CODE": "CZ016C", "URAU_CATG": "C", "CNTR_CODE": "CZ", "URAU_NAME": "Most", "CITY_CPTL": null, "FUA_CODE": "CZ016F", "AREA_SQM": 86913713.4163826, "NUTS3_2021": "CZ042", "FID": "CZ016C"}, "id": "CZ016C"}, {"type": "Feature", "geometry": {"type": "Point", "coordinates": [18.5277, 49.855]}, "properties": {"URAU_CODE": "CZ017C", "URAU_CATG": "C", "CNTR_CODE": "CZ", "URAU_NAME": "Karviná", "CITY_CPTL": null, "FUA_CODE": "CZ003F", "AREA_SQM": 57527946.6823635, "NUTS3_2021": "CZ080", "FID": "CZ017C"}, "id": "CZ017C"}, {"type": "Feature", "geometry": {"type": "Point", "coordinates": [8.2604, 50.0792]}, "properties": {"URAU_CODE": "DE019C", "URAU_CATG": "C", "CNTR_CODE": "DE", "URAU_NAME": "Wiesbaden", "CITY_CPTL": null, "FUA_CODE": "DE019F", "AREA_SQM": 203805977.697333, "NUTS3_2021": "DE714", "FID": "DE019C"}, "id": "DE019C"}, {"type": "Feature", "geometry": {"type": "Point", "coordinates": [9.9315, 51.5431]}, "properties": {"URAU_CODE": "DE020C", "URAU_CATG": "C", "CNTR_CODE": "DE", "URAU_NAME": "Göttingen", "CITY_CPTL": null, "FUA_CODE": "DE020F", "AREA_SQM": 117111999.654821, "NUTS3_2021": "DE91C", "FID": "DE020C"}, "id": "DE020C"}, {"type": "Feature", "geometry": {"type": "Point", "coordinates": [6.8785, 51.4138]}, "properties": {"URAU_CODE": "DE021C", "URAU_CATG": "C", "CNTR_CODE": "DE", "URAU_NAME": "Mülheim a.d.Ruhr", "CITY_CPTL": null, "FUA_CODE": "DE006F", "AREA_SQM": 91286748.8725611, "NUTS3_2021": "DEA16", "FID": "DE021C"}, "id": "DE021C"}, {"type": "Feature", "geometry": {"type": "Point", "coordinates": [6.6198, 51.4528]}, "properties": {"URAU_CODE": "DE022C", "URAU_CATG": "C", "CNTR_CODE": "DE", "URAU_NAME": "Moers", "CITY_CPTL": null, "FUA_CODE": "DE006F", "AREA_SQM": 68167346.3728656, "NUTS3_2021": "DEA1F", "FID": "DE022C"}, "id": "DE022C"}, {"type": "Feature", "geometry": {"type": "Point", "coordinates": [10.0944, 52.6451]}, "properties": {"URAU_CODE": "DE057C", "URAU_CATG": "C", "CNTR_CODE": "DE", "URAU_NAME": "Celle", "CITY_CPTL": null, "FUA_CODE": "DE057F", "AREA_SQM": 175941698.431203, "NUTS3_2021": "DE931", "FID": "DE057C"}, "id": "DE057C"}, {"type": "Feature", "geometry": {"type": "Point", "coordinates": [9.1458, 49.9639]}, "properties": {"URAU_CODE": "DE058C", "URAU_CATG": "C", "CNTR_CODE": "DE", "URAU_NAME": "Aschaffenburg", "CITY_CPTL": null, "FUA_CODE": "DE058F", "AREA_SQM": 61943942.2773338, "NUTS3_2021": "DE261", "FID": "DE058C"}, "id": "DE058C"}, {"type": "Feature", "geometry": {"type": "Point", "coordinates": [10.8989, 49.8872]}, "properties": {"URAU_CODE": "DE059C", "URAU_CATG": "C", "CNTR_CODE": "DE", "URAU_NAME": "Bamberg", "CITY_CPTL": null, "FUA_CODE": "DE059F", "AREA_SQM": 54976526.8586482, "NUTS3_2021": "DE241", "FID": "DE059C"}, "id": "DE059C"}, {"type": "Feature", "geometry": {"type": "Point", "coordinates": [7.8236, 51.6652]}, "properties": {"URAU_CODE": "DE092C", "URAU_CATG": "C", "CNTR_CODE": "DE", "URAU_NAME": "Hamm", "CITY_CPTL": null, "FUA_CODE": "DE006F", "AREA_SQM": 227720971.553597, "NUTS3_2021": "DEA54", "FID": "DE092C"}, "id": "DE092C"}, {"type": "Feature", "geometry": {"type": "Point", "coordinates": [7.2086, 51.5375]}, "properties": {"URAU_CODE": "DE093C", "URAU_CATG": "C", "CNTR_CODE": "DE", "URAU_NAME": "Herne", "CITY_CPTL": null, "FUA_CODE": "DE006F", "AREA_SQM": 51504683.7692033, "NUTS3_2021": "DEA55", "FID": "DE093C"}, "id": "DE093C"}, {"type": "Feature", "geometry": {"type": "Point", "coordinates": [13.4172, 50.4803]}, "properties": {"URAU_CODE": "CZ018C", "URAU_CATG": "C", "CNTR_CODE": "CZ", "URAU_NAME": "Chomutov-Jirkov", "CITY_CPTL": null, "FUA_CODE": "CZ018F", "AREA_SQM": 46242855.5271202, "NUTS3_2021": "CZ042", "FID": "CZ018C"}, "id": "CZ018C"}, {"type": "Feature", "geometry": {"type": "Point", "coordinates": [8.6648, 49.8815]}, "properties": {"URAU_CODE": "DE023C", "URAU_CATG": "C", "CNTR_CODE": "DE", "URAU_NAME": "Darmstadt", "CITY_CPTL": null, "FUA_CODE": "DE023F", "AREA_SQM": 122918467.18509, "NUTS3_2021": "DE711", "FID": "DE023C"}, "id": "DE023C"}, {"type": "Feature", "geometry": {"type": "Point", "coordinates": [6.655, 49.7627]}, "properties": {"URAU_CODE": "DE024C", "URAU_CATG": "C", "CNTR_CODE": "DE", "URAU_NAME": "Trier", "CITY_CPTL": null, "FUA_CODE": "DE024F", "AREA_SQM": 115593868.020021, "NUTS3_2021": "DEB21", "FID": "DE024C"}, "id": "DE024C"}, {"type": "Feature", "geometry": {"type": "Point", "coordinates": [12.136, 50.4984]}, "properties": {"URAU_CODE": "DE060C", "URAU_CATG": "C", "CNTR_CODE": "DE", "URAU_NAME": "Plauen", "CITY_CPTL": null, "FUA_CODE": "DE060F", "AREA_SQM": 101621049.659073, "NUTS3_2021": "DED44", "FID": "DE060C"}, "id": "DE060C"}, {"type": "Feature", "geometry": {"type": "Point", "coordinates": [13.2489, 53.5416]}, "properties": {"URAU_CODE": "DE061C", "URAU_CATG": "C", "CNTR_CODE": "DE", "URAU_NAME": "Neubrandenburg", "CITY_CPTL": null, "FUA_CODE": "DE061F", "AREA_SQM": 85683260.9615113, "NUTS3_2021": "DE80J", "FID": "DE061C"}, "id": "DE061C"}, {"type": "Feature", "geometry": {"type": "Point", "coordinates": [11.3948, 48.7552]}, "properties": {"URAU_CODE": "DE112C", "URAU_CATG": "C", "CNTR_CODE": "DE", "URAU_NAME": "Ingolstadt", "CITY_CPTL": null, "FUA_CODE": "DE112F", "AREA_SQM": 133464014.810136, "NUTS3_2021": "DE211", "FID": "DE112C"}, "id": "DE112C"}, {"type": "Feature", "geometry": {"type": "Point", "coordinates": [12.0827, 50.894]}, "properties": {"URAU_CODE": "DE113C", "URAU_CATG": "C", "CNTR_CODE": "DE", "URAU_NAME": "Gera", "CITY_CPTL": null, "FUA_CODE": "DE113F", "AREA_SQM": 152241168.914262, "NUTS3_2021": "DEG02", "FID": "DE113C"}, "id": "DE113C"}, {"type": "Feature", "geometry": {"type": "Point", "coordinates": [13.4019, 52.5015]}, "properties": {"URAU_CODE": "DE001C", "URAU_CATG": "C", "CNTR_CODE": "DE", "URAU_NAME": "Berlin", "CITY_CPTL": "Y", "FUA_CODE": "DE001F", "AREA_SQM": 891801166.417338, "NUTS3_2021": "DE300", "FID": "DE001C"}, "id": "DE001C"}, {"type": "Feature", "geometry": {"type": "Point", "coordinates": [7.818, 47.9927]}, "properties": {"URAU_CODE": "DE025C", "URAU_CATG": "C", "CNTR_CODE": "DE", "URAU_NAME": "Freiburg im Breisgau", "CITY_CPTL": null, "FUA_CODE": "DE025F", "AREA_SQM": 153890221.180774, "NUTS3_2021": "DE131", "FID": "DE025C"}, "id": "DE025C"}, {"type": "Feature", "geometry": {"type": "Point", "coordinates": [12.1137, 49.013]}, "properties": {"URAU_CODE": "DE026C", "URAU_CATG": "C", "CNTR_CODE": "DE", "URAU_NAME": "Regensburg", "CITY_CPTL": null, "FUA_CODE": "DE026F", "AREA_SQM": 79703977.7360488, "NUTS3_2021": "DE232", "FID": "DE026C"}, "id": "DE026C"}, {"type": "Feature", "geometry": {"type": "Point", "coordinates": [14.4903, 52.3248]}, "properties": {"URAU_CODE": "DE027C", "URAU_CATG": "C", "CNTR_CODE": "DE", "URAU_NAME": "Frankfurt (Oder)", "CITY_CPTL": null, "FUA_CODE": "DE027F", "AREA_SQM": 147743670.241565, "NUTS3_2021": "DE403", "FID": "DE027C"}, "id": "DE027C"}, {"type": "Feature", "geometry": {"type": "Point", "coordinates": [9.6524, 50.5631]}, "properties": {"URAU_CODE": "DE062C", "URAU_CATG": "C", "CNTR_CODE": "DE", "URAU_NAME": "Fulda", "CITY_CPTL": null, "FUA_CODE": "DE062F", "AREA_SQM": 103661640.137572, "NUTS3_2021": "DE732", "FID": "DE062C"}, "id": "DE062C"}, {"type": "Feature", "geometry": {"type": "Point", "coordinates": [10.3081, 47.7382]}, "properties": {"URAU_CODE": "DE063C", "URAU_CATG": "C", "CNTR_CODE": "DE", "URAU_NAME": "Kempten (Allgäu)", "CITY_CPTL": null, "FUA_CODE": "DE063F", "AREA_SQM": 63248629.8760923, "NUTS3_2021": "DE273", "FID": "DE063C"}, "id": "DE063C"}, {"type": "Feature", "geometry": {"type": "Point", "coordinates": [6.109, 50.7605]}, "properties": {"URAU_CODE": "DE086C", "URAU_CATG": "C", "CNTR_CODE": "DE", "URAU_NAME": "Aachen", "CITY_CPTL": null, "FUA_CODE": "DE086F", "AREA_SQM": 163923096.83254, "NUTS3_2021": "DEA2D", "FID": "DE086C"}, "id": "DE086C"}, {"type": "Feature", "geometry": {"type": "Point", "coordinates": [6.5797, 51.3452]}, "properties": {"URAU_CODE": "DE087C", "URAU_CATG": "C", "CNTR_CODE": "DE", "URAU_NAME": "Krefeld", "CITY_CPTL": null, "FUA_CODE": "DE087F", "AREA_SQM": 136588325.810233, "NUTS3_2021": "DEA14", "FID": "DE087C"}, "id": "DE087C"}, {"type": "Feature", "geometry": {"type": "Point", "coordinates": [6.8539, 51.5138]}, "properties": {"URAU_CODE": "DE088C", "URAU_CATG": "C", "CNTR_CODE": "DE", "URAU_NAME": "Oberhausen", "CITY_CPTL": null, "FUA_CODE": "DE006F", "AREA_SQM": 77488069.5068392, "NUTS3_2021": "DEA17", "FID": "DE088C"}, "id": "DE088C"}, {"type": "Feature", "geometry": {"type": "Point", "coordinates": [11.3179, 50.9783]}, "properties": {"URAU_CODE": "DE028C", "URAU_CATG": "C", "CNTR_CODE": "DE", "URAU_NAME": "Weimar", "CITY_CPTL": null, "FUA_CODE": "DE028F", "AREA_SQM": 84405236.3257054, "NUTS3_2021": "DEG05", "FID": "DE028C"}, "id": "DE028C"}, {"type": "Feature", "geometry": {"type": "Point", "coordinates": [11.4167, 53.6214]}, "properties": {"URAU_CODE": "DE029C", "URAU_CATG": "C", "CNTR_CODE": "DE", "URAU_NAME": "Schwerin", "CITY_CPTL": null, "FUA_CODE": "DE029F", "AREA_SQM": 130101769.189168, "NUTS3_2021": "DE804", "FID": "DE029C"}, "id": "DE029C"}, {"type": "Feature", "geometry": {"type": "Point", "coordinates": [11.0202, 50.9832]}, "properties": {"URAU_CODE": "DE030C", "URAU_CATG": "C", "CNTR_CODE": "DE", "URAU_NAME": "Erfurt", "CITY_CPTL": null, "FUA_CODE": "DE030F", "AREA_SQM": 270345741.380372, "NUTS3_2021": "DEG01", "FID": "DE030C"}, "id": "DE030C"}, {"type": "Feature", "geometry": {"type": "Point", "coordinates": [12.1521, 48.5372]}, "properties": {"URAU_CODE": "DE064C", "URAU_CATG": "C", "CNTR_CODE": "DE", "URAU_NAME": "Landshut", "CITY_CPTL": null, "FUA_CODE": "DE064F", "AREA_SQM": 66173717.611062, "NUTS3_2021": "DE221", "FID": "DE064C"}, "id": "DE064C"}, {"type": "Feature", "geometry": {"type": "Point", "coordinates": [9.004, 48.7123]}, "properties": {"URAU_CODE": "DE065C", "URAU_CATG": "C", "CNTR_CODE": "DE", "URAU_NAME": "Sindelfingen", "CITY_CPTL": null, "FUA_CODE": "DE007F", "AREA_SQM": 50669033.3701045, "NUTS3_2021": "DE112", "FID": "DE065C"}, "id": "DE065C"}, {"type": "Feature", "geometry": {"type": "Point", "coordinates": [12.1092, 47.8445]}, "properties": {"URAU_CODE": "DE066C", "URAU_CATG": "C", "CNTR_CODE": "DE", "URAU_NAME": "Rosenheim", "CITY_CPTL": null, "FUA_CODE": "DE066F", "AREA_SQM": 36727047.0945044, "NUTS3_2021": "DE213", "FID": "DE066C"}, "id": "DE066C"}, {"type": "Feature", "geometry": {"type": "Point", "coordinates": [8.357, 49.5333]}, "properties": {"URAU_CODE": "DE067C", "URAU_CATG": "C", "CNTR_CODE": "DE", "URAU_NAME": "Frankenthal (Pfalz)", "CITY_CPTL": null, "FUA_CODE": "DE081F", "AREA_SQM": 43793376.1384677, "NUTS3_2021": "DEB31", "FID": "DE067C"}, "id": "DE067C"}, {"type": "Feature", "geometry": {"type": "Point", "coordinates": [7.0625, 51.17]}, "properties": {"URAU_CODE": "DE094C", "URAU_CATG": "C", "CNTR_CODE": "DE", "URAU_NAME": "Solingen", "CITY_CPTL": null, "FUA_CODE": "DE094F", "AREA_SQM": 88995957.7484914, "NUTS3_2021": "DEA19", "FID": "DE094C"}, "id": "DE094C"}, {"type": "Feature", "geometry": {"type": "Point", "coordinates": [8.047, 52.2777]}, "properties": {"URAU_CODE": "DE095C", "URAU_CATG": "C", "CNTR_CODE": "DE", "URAU_NAME": "Osnabrück", "CITY_CPTL": null, "FUA_CODE": "DE095F", "AREA_SQM": 120191049.264869, "NUTS3_2021": "DE944", "FID": "DE095C"}, "id": "DE095C"}, {"type": "Feature", "geometry": {"type": "Point", "coordinates": [10.027, 53.5446]}, "properties": {"URAU_CODE": "DE002C", "URAU_CATG": "C", "CNTR_CODE": "DE", "URAU_NAME": "Hamburg", "CITY_CPTL": null, "FUA_CODE": "DE002F", "AREA_SQM": 742531985.917097, "NUTS3_2021": "DE600", "FID": "DE002C"}, "id": "DE002C"}, {"type": "Feature", "geometry": {"type": "Point", "coordinates": [11.5473, 48.1532]}, "properties": {"URAU_CODE": "DE003C", "URAU_CATG": "C", "CNTR_CODE": "DE", "URAU_NAME": "München", "CITY_CPTL": null, "FUA_CODE": "DE003F", "AREA_SQM": 311404391.138704, "NUTS3_2021": "DE212", "FID": "DE003C"}, "id": "DE003C"}, {"type": "Feature", "geometry": {"type": "Point", "coordinates": [10.8855, 48.3456]}, "properties": {"URAU_CODE": "DE031C", "URAU_CATG": "C", "CNTR_CODE": "DE", "URAU_NAME": "Augsburg", "CITY_CPTL": null, "FUA_CODE": "DE031F", "AREA_SQM": 146455913.734226, "NUTS3_2021": "DE271", "FID": "DE031C"}, "id": "DE031C"}, {"type": "Feature", "geometry": {"type": "Point", "coordinates": [7.1098, 50.7058]}, "properties": {"URAU_CODE": "DE032C", "URAU_CATG": "C", "CNTR_CODE": "DE", "URAU_NAME": "Bonn", "CITY_CPTL": null, "FUA_CODE": "DE032F", "AREA_SQM": 141581295.246371, "NUTS3_2021": "DEA22", "FID": "DE032C"}, "id": "DE032C"}, {"type": "Feature", "geometry": {"type": "Point", "coordinates": [13.0793, 54.2962]}, "properties": {"URAU_CODE": "DE068C", "URAU_CATG": "C", "CNTR_CODE": "DE", "URAU_NAME": "Stralsund", "CITY_CPTL": null, "FUA_CODE": "DE068F", "AREA_SQM": 39340675.2443083, "NUTS3_2021": "DE80L", "FID": "DE068C"}, "id": "DE068C"}, {"type": "Feature", "geometry": {"type": "Point", "coordinates": [9.471, 47.6797]}, "properties": {"URAU_CODE": "DE069C", "URAU_CATG": "C", "CNTR_CODE": "DE", "URAU_NAME": "Friedrichshafen", "CITY_CPTL": null, "FUA_CODE": "DE069F", "AREA_SQM": 69994682.6335714, "NUTS3_2021": "DE147", "FID": "DE069C"}, "id": "DE069C"}, {"type": "Feature", "geometry": {"type": "Point", "coordinates": [7.9438, 48.4778]}, "properties": {"URAU_CODE": "DE070C", "URAU_CATG": "C", "CNTR_CODE": "DE", "URAU_NAME": "Offenburg", "CITY_CPTL": null, "FUA_CODE": "DE070F", "AREA_SQM": 78163657.5761226, "NUTS3_2021": "DE134", "FID": "DE070C"}, "id": "DE070C"}, {"type": "Feature", "geometry": {"type": "Point", "coordinates": [8.6942, 49.4055]}, "properties": {"URAU_CODE": "DE100C", "URAU_CATG": "C", "CNTR_CODE": "DE", "URAU_NAME": "Heidelberg", "CITY_CPTL": null, "FUA_CODE": "DE100F", "AREA_SQM": 109202642.321692, "NUTS3_2021": "DE125", "FID": "DE100C"}, "id": "DE100C"}, {"type": "Feature", "geometry": {"type": "Point", "coordinates": [8.7543, 51.7303]}, "properties": {"URAU_CODE": "DE101C", "URAU_CATG": "C", "CNTR_CODE": "DE", "URAU_NAME": "Paderborn", "CITY_CPTL": null, "FUA_CODE": "DE101F", "AREA_SQM": 179697730.023231, "NUTS3_2021": "DEA47", "FID": "DE101C"}, "id": "DE101C"}, {"type": "Feature", "geometry": {"type": "Point", "coordinates": [9.9409, 49.7847]}, "properties": {"URAU_CODE": "DE102C", "URAU_CATG": "C", "CNTR_CODE": "DE", "URAU_NAME": "Würzburg", "CITY_CPTL": null, "FUA_CODE": "DE102F", "AREA_SQM": 87737214.8404484, "NUTS3_2021": "DE263", "FID": "DE102C"}, "id": "DE102C"}, {"type": "Feature", "geometry": {"type": "Point", "coordinates": [7.2131, 51.6049]}, "properties": {"URAU_CODE": "DE103C", "URAU_CATG": "C", "CNTR_CODE": "DE", "URAU_NAME": "Recklinghausen", "CITY_CPTL": null, "FUA_CODE": "DE006F", "AREA_SQM": 66584073.2214547, "NUTS3_2021": "DEA36", "FID": "DE103C"}, "id": "DE103C"}, {"type": "Feature", "geometry": {"type": "Point", "coordinates": [6.9733, 50.9456]}, "properties": {"URAU_CODE": "DE004C", "URAU_CATG": "C", "CNTR_CODE": "DE", "URAU_NAME": "Köln", "CITY_CPTL": null, "FUA_CODE": "DE004F", "AREA_SQM": 406758834.64056, "NUTS3_2021": "DEA23", "FID": "DE004C"}, "id": "DE004C"}, {"type": "Feature", "geometry": {"type": "Point", "coordinates": [8.6442, 50.118]}, "properties": {"URAU_CODE": "DE005C", "URAU_CATG": "C", "CNTR_CODE": "DE", "URAU_NAME": "Frankfurt am Main", "CITY_CPTL": null, "FUA_CODE": "DE005F", "AREA_SQM": 248151864.295956, "NUTS3_2021": "DE712", "FID": "DE005C"}, "id": "DE005C"}, {"type": "Feature", "geometry": {"type": "Point", "coordinates": [8.4127, 49.0113]}, "properties": {"URAU_CODE": "DE033C", "URAU_CATG": "C", "CNTR_CODE": "DE", "URAU_NAME": "Karlsruhe", "CITY_CPTL": null, "FUA_CODE": "DE033F", "AREA_SQM": 174089959.557399, "NUTS3_2021": "DE122", "FID": "DE033C"}, "id": "DE033C"}, {"type": "Feature", "geometry": {"type": "Point", "coordinates": [6.412, 51.1672]}, "properties": {"URAU_CODE": "DE034C", "URAU_CATG": "C", "CNTR_CODE": "DE", "URAU_NAME": "Mönchengladbach", "CITY_CPTL": null, "FUA_CODE": "DE034F", "AREA_SQM": 170626145.220047, "NUTS3_2021": "DEA15", "FID": "DE034C"}, "id": "DE034C"}, {"type": "Feature", "geometry": {"type": "Point", "coordinates": [8.2415, 49.9742]}, "properties": {"URAU_CODE": "DE035C", "URAU_CATG": "C", "CNTR_CODE": "DE", "URAU_NAME": "Mainz", "CITY_CPTL": null, "FUA_CODE": "DE035F", "AREA_SQM": 97669091.6898534, "NUTS3_2021": "DEB35", "FID": "DE035C"}, "id": "DE035C"}, {"type": "Feature", "geometry": {"type": "Point", "coordinates": [14.9666, 51.1415]}, "properties": {"URAU_CODE": "DE071C", "URAU_CATG": "C", "CNTR_CODE": "DE", "URAU_NAME": "Görlitz", "CITY_CPTL": null, "FUA_CODE": "DE071F", "AREA_SQM": 67318037.8708551, "NUTS3_2021": "DED2D", "FID": "DE071C"}, "id": "DE071C"}, {"type": "Feature", "geometry": {"type": "Point", "coordinates": [7.19, 50.7714]}, "properties": {"URAU_CODE": "DE072C", "URAU_CATG": "C", "CNTR_CODE": "DE", "URAU_NAME": "Sankt Augustin", "CITY_CPTL": null, "FUA_CODE": "DE032F", "AREA_SQM": 34146069.8230172, "NUTS3_2021": "DEA2C", "FID": "DE072C"}, "id": "DE072C"}, {"type": "Feature", "geometry": {"type": "Point", "coordinates": [10.0527, 48.3806]}, "properties": {"URAU_CODE": "DE073C", "URAU_CATG": "C", "CNTR_CODE": "DE", "URAU_NAME": "Neu-Ulm", "CITY_CPTL": null, "FUA_CODE": "DE110F", "AREA_SQM": 80863693.8405882, "NUTS3_2021": "DE279", "FID": "DE073C"}, "id": "DE073C"}, {"type": "Feature", "geometry": {"type": "Point", "coordinates": [7.0171, 51.4338]}, "properties": {"URAU_CODE": "DE006C", "URAU_CATG": "C", "CNTR_CODE": "DE", "URAU_NAME": "Essen", "CITY_CPTL": null, "FUA_CODE": "DE006F", "AREA_SQM": 210471977.498814, "NUTS3_2021": "DEA13", "FID": "DE006C"}, "id": "DE006C"}, {"type": "Feature", "geometry": {"type": "Point", "coordinates": [9.172, 48.7746]}, "properties": {"URAU_CODE": "DE007C", "URAU_CATG": "C", "CNTR_CODE": "DE", "URAU_NAME": "Stuttgart", "CITY_CPTL": null, "FUA_CODE": "DE007F", "AREA_SQM": 209997030.509709, "NUTS3_2021": "DE111", "FID": "DE007C"}, "id": "DE007C"}, {"type": "Feature", "geometry": {"type": "Point", "coordinates": [10.1722, 54.2957]}, "properties": {"URAU_CODE": "DE036C", "URAU_CATG": "C", "CNTR_CODE": "DE", "URAU_NAME": "Kiel", "CITY_CPTL": null, "FUA_CODE": "DE036F", "AREA_SQM": 112321041.227992, "NUTS3_2021": "DEF02", "FID": "DE036C"}, "id": "DE036C"}, {"type": "Feature", "geometry": {"type": "Point", "coordinates": [7.0068, 49.2398]}, "properties": {"URAU_CODE": "DE037C", "URAU_CATG": "C", "CNTR_CODE": "DE", "URAU_NAME": "Saarbrücken", "CITY_CPTL": null, "FUA_CODE": "DE037F", "AREA_SQM": 168872367.56265, "NUTS3_2021": "DEC01", "FID": "DE037C"}, "id": "DE037C"}, {"type": "Feature", "geometry": {"type": "Point", "coordinates": [10.221, 50.047]}, "properties": {"URAU_CODE": "DE074C", "URAU_CATG": "C", "CNTR_CODE": "DE", "URAU_NAME": "Schweinfurt", "CITY_CPTL": null, "FUA_CODE": "DE074F", "AREA_SQM": 35575858.372782, "NUTS3_2021": "DE262", "FID": "DE074C"}, "id": "DE074C"}, {"type": "Feature", "geometry": {"type": "Point", "coordinates": [13.4134, 54.0945]}, "properties": {"URAU_CODE": "DE075C", "URAU_CATG": "C", "CNTR_CODE": "DE", "URAU_NAME": "Greifswald", "CITY_CPTL": null, "FUA_CODE": "DE075F", "AREA_SQM": 51046117.3786118, "NUTS3_2021": "DE80N", "FID": "DE075C"}, "id": "DE075C"}, {"type": "Feature", "geometry": {"type": "Point", "coordinates": [33.5943, 34.9272]}, "properties": {"URAU_CODE": "CY002C", "URAU_CATG": "C", "CNTR_CODE": "CY", "URAU_NAME": "Larnaka", "CITY_CPTL": null, "FUA_CODE": "CY002F", "AREA_SQM": 118650684.142274, "NUTS3_2021": "CY000", "FID": "CY002C"}, "id": "CY002C"}, {"type": "Feature", "geometry": {"type": "Point", "coordinates": [14.2955, 46.6392]}, "properties": {"URAU_CODE": "AT006C", "URAU_CATG": "C", "CNTR_CODE": "AT", "URAU_NAME": "Klagenfurt", "CITY_CPTL": null, "FUA_CODE": "AT006F", "AREA_SQM": 119959429.505503, "NUTS3_2021": "AT211", "FID": "AT006C"}, "id": "AT006C"}, {"type": "Feature", "geometry": {"type": "Point", "coordinates": [4.3708, 50.8359]}, "properties": {"URAU_CODE": "BE001C", "URAU_CATG": "C", "CNTR_CODE": "BE", "URAU_NAME": "Bruxelles/Brussel", "CITY_CPTL": "Y", "FUA_CODE": "BE001F", "AREA_SQM": 162159291.125752, "NUTS3_2021": "BE100", "FID": "BE001C"}, "id": "BE001C"}, {"type": "Feature", "geometry": {"type": "Point", "coordinates": [4.372, 51.2588]}, "properties": {"URAU_CODE": "BE002C", "URAU_CATG": "C", "CNTR_CODE": "BE", "URAU_NAME": "Antwerpen", "CITY_CPTL": null, "FUA_CODE": "BE002F", "AREA_SQM": 200364950.37065, "NUTS3_2021": "BE211", "FID": "BE002C"}, "id": "BE002C"}, {"type": "Feature", "geometry": {"type": "Point", "coordinates": [9.3752, 47.4221]}, "properties": {"URAU_CODE": "CH009C", "URAU_CATG": "C", "CNTR_CODE": "CH", "URAU_NAME": "St. Gallen", "CITY_CPTL": null, "FUA_CODE": "CH009F", "AREA_SQM": 39567994.5121999, "NUTS3_2021": "CH055", "FID": "CH009C"}, "id": "CH009C"}, {"type": "Feature", "geometry": {"type": "Point", "coordinates": [7.2608, 47.14]}, "properties": {"URAU_CODE": "CH010C", "URAU_CATG": "C", "CNTR_CODE": "CH", "URAU_NAME": "Biel/Bienne", "CITY_CPTL": null, "FUA_CODE": "CH010F", "AREA_SQM": 31960462.758145, "NUTS3_2021": "CH021", "FID": "CH010C"}, "id": "CH010C"}, {"type": "Feature", "geometry": {"type": "Point", "coordinates": [7.6245, 46.7648]}, "properties": {"URAU_CODE": "CH011C", "URAU_CATG": "C", "CNTR_CODE": "CH", "URAU_NAME": "Thun", "CITY_CPTL": null, "FUA_CODE": "CH001F", "AREA_SQM": 41864716.0069299, "NUTS3_2021": "CH021", "FID": "CH011C"}, "id": "CH011C"}, {"type": "Feature", "geometry": {"type": "Point", "coordinates": [8.5253, 47.1782]}, "properties": {"URAU_CODE": "CH012C", "URAU_CATG": "C", "CNTR_CODE": "CH", "URAU_NAME": "Zug", "CITY_CPTL": null, "FUA_CODE": "CH012F", "AREA_SQM": 52186205.0857218, "NUTS3_2021": "CH066", "FID": "CH012C"}, "id": "CH012C"}, {"type": "Feature", "geometry": {"type": "Point", "coordinates": [3.7253, 51.0743]}, "properties": {"URAU_CODE": "BE003C", "URAU_CATG": "C", "CNTR_CODE": "BE", "URAU_NAME": "Gent", "CITY_CPTL": null, "FUA_CODE": "BE003F", "AREA_SQM": 157984925.636413, "NUTS3_2021": "BE234", "FID": "BE003C"}, "id": "BE003C"}, {"type": "Feature", "geometry": {"type": "Point", "coordinates": [4.453, 50.4161]}, "properties": {"URAU_CODE": "BE004C", "URAU_CATG": "C", "CNTR_CODE": "BE", "URAU_NAME": "Charleroi", "CITY_CPTL": null, "FUA_CODE": "BE004F", "AREA_SQM": 130138376.710897, "NUTS3_2021": "BE32B", "FID": "BE004C"}, "id": "BE004C"}, {"type": "Feature", "geometry": {"type": "Point", "coordinates": [5.5527, 50.6356]}, "properties": {"URAU_CODE": "BE005C", "URAU_CATG": "C", "CNTR_CODE": "BE", "URAU_NAME": "Liège", "CITY_CPTL": null, "FUA_CODE": "BE005F", "AREA_SQM": 212752955.085182, "NUTS3_2021": "BE332", "FID": "BE005C"}, "id": "BE005C"}, {"type": "Feature", "geometry": {"type": "Point", "coordinates": [24.3412, 42.2168]}, "properties": {"URAU_CODE": "BG015C", "URAU_CATG": "C", "CNTR_CODE": "BG", "URAU_NAME": "Pazardzhik", "CITY_CPTL": null, "FUA_CODE": "BG015F", "AREA_SQM": 636839120.417274, "NUTS3_2021": "BG423", "FID": "BG015C"}, "id": "BG015C"}, {"type": "Feature", "geometry": {"type": "Point", "coordinates": [33.3761, 35.1454]}, "properties": {"URAU_CODE": "CY001C", "URAU_CATG": "C", "CNTR_CODE": "CY", "URAU_NAME": "Lefkosia", "CITY_CPTL": null, "FUA_CODE": "CY001F", "AREA_SQM": 219921337.84798, "NUTS3_2021": "CY000", "FID": "CY001C"}, "id": "CY001C"}, {"type": "Feature", "geometry": {"type": "Point", "coordinates": [3.2222, 51.266]}, "properties": {"URAU_CODE": "BE006C", "URAU_CATG": "C", "CNTR_CODE": "BE", "URAU_NAME": "Brugge", "CITY_CPTL": null, "FUA_CODE": "BE006F", "AREA_SQM": 139249330.320431, "NUTS3_2021": "BE251", "FID": "BE006C"}, "id": "BE006C"}, {"type": "Feature", "geometry": {"type": "Point", "coordinates": [4.8726, 50.4605]}, "properties": {"URAU_CODE": "BE007C", "URAU_CATG": "C", "CNTR_CODE": "BE", "URAU_NAME": "Namur", "CITY_CPTL": null, "FUA_CODE": "BE007F", "AREA_SQM": 176127018.98383, "NUTS3_2021": "BE352", "FID": "BE007C"}, "id": "BE007C"}, {"type": "Feature", "geometry": {"type": "Point", "coordinates": [4.7059, 50.8822]}, "properties": {"URAU_CODE": "BE008C", "URAU_CATG": "C", "CNTR_CODE": "BE", "URAU_NAME": "Leuven", "CITY_CPTL": null, "FUA_CODE": "BE001F", "AREA_SQM": 57535326.1960803, "NUTS3_2021": "BE242", "FID": "BE008C"}, "id": "BE008C"}, {"type": "Feature", "geometry": {"type": "Point", "coordinates": [23.1535, 42.0167]}, "properties": {"URAU_CODE": "BG016C", "URAU_CATG": "C", "CNTR_CODE": "BG", "URAU_NAME": "Blagoevgrad", "CITY_CPTL": null, "FUA_CODE": "BG016F", "AREA_SQM": 620070371.059477, "NUTS3_2021": "BG413", "FID": "BG016C"}, "id": "BG016C"}, {"type": "Feature", "geometry": {"type": "Point", "coordinates": [3.9455, 50.4402]}, "properties": {"URAU_CODE": "BE009C", "URAU_CATG": "C", "CNTR_CODE": "BE", "URAU_NAME": "Mons", "CITY_CPTL": null, "FUA_CODE": "BE009F", "AREA_SQM": 198770827.419127, "NUTS3_2021": "BE323", "FID": "BE009C"}, "id": "BE009C"}, {"type": "Feature", "geometry": {"type": "Point", "coordinates": [3.2645, 50.8]}, "properties": {"URAU_CODE": "BE010C", "URAU_CATG": "C", "CNTR_CODE": "BE", "URAU_NAME": "Kortrijk", "CITY_CPTL": null, "FUA_CODE": "BE010F", "AREA_SQM": 80727424.6738815, "NUTS3_2021": "BE254", "FID": "BE010C"}, "id": "BE010C"}, {"type": "Feature", "geometry": {"type": "Point", "coordinates": [2.9221, 51.2146]}, "properties": {"URAU_CODE": "BE011C", "URAU_CATG": "C", "CNTR_CODE": "BE", "URAU_NAME": "Oostende", "CITY_CPTL": null, "FUA_CODE": "BE011F", "AREA_SQM": 38006246.3617063, "NUTS3_2021": "BE255", "FID": "BE011C"}, "id": "BE011C"}, {"type": "Feature", "geometry": {"type": "Point", "coordinates": [4.4503, 51.0285]}, "properties": {"URAU_CODE": "BE012C", "URAU_CATG": "C", "CNTR_CODE": "BE", "URAU_NAME": "Mechelen", "CITY_CPTL": null, "FUA_CODE": "BE012F", "AREA_SQM": 66053569.1251269, "NUTS3_2021": "BE212", "FID": "BE012C"}, "id": "BE012C"}, {"type": "Feature", "geometry": {"type": "Point", "coordinates": [3.2509, 50.7364]}, "properties": {"URAU_CODE": "BE013C", "URAU_CATG": "C", "CNTR_CODE": "BE", "URAU_NAME": "Mouscron", "CITY_CPTL": null, "FUA_CODE": "BE013F", "AREA_SQM": 40789099.9271789, "NUTS3_2021": "BE328", "FID": "BE013C"}, "id": "BE013C"}, {"type": "Feature", "geometry": {"type": "Point", "coordinates": [4.1757, 50.4781]}, "properties": {"URAU_CODE": "BE014C", "URAU_CATG": "C", "CNTR_CODE": "BE", "URAU_NAME": "La Louvière", "CITY_CPTL": null, "FUA_CODE": "BE014F", "AREA_SQM": 83878435.8998696, "NUTS3_2021": "BE329", "FID": "BE014C"}, "id": "BE014C"}, {"type": "Feature", "geometry": {"type": "Point", "coordinates": [5.8691, 50.5936]}, "properties": {"URAU_CODE": "BE015C", "URAU_CATG": "C", "CNTR_CODE": "BE", "URAU_NAME": "Verviers", "CITY_CPTL": null, "FUA_CODE": "BE015F", "AREA_SQM": 47048216.1274626, "NUTS3_2021": "BE335", "FID": "BE015C"}, "id": "BE015C"}, {"type": "Feature", "geometry": {"type": "Point", "coordinates": [23.3649, 42.6734]}, "properties": {"URAU_CODE": "BG001C", "URAU_CATG": "C", "CNTR_CODE": "BG", "URAU_NAME": "Sofia", "CITY_CPTL": "Y", "FUA_CODE": "BG001F", "AREA_SQM": 1341763773.46418, "NUTS3_2021": "BG411", "FID": "BG001C"}, "id": "BG001C"}, {"type": "Feature", "geometry": {"type": "Point", "coordinates": [24.7381, 42.1432]}, "properties": {"URAU_CODE": "BG002C", "URAU_CATG": "C", "CNTR_CODE": "BG", "URAU_NAME": "Plovdiv", "CITY_CPTL": null, "FUA_CODE": "BG002F", "AREA_SQM": 101888674.022384, "NUTS3_2021": "BG421", "FID": "BG002C"}, "id": "BG002C"}, {"type": "Feature", "geometry": {"type": "Point", "coordinates": [27.8831, 43.1994]}, "properties": {"URAU_CODE": "BG003C", "URAU_CATG": "C", "CNTR_CODE": "BG", "URAU_NAME": "Varna", "CITY_CPTL": null, "FUA_CODE": "BG003F", "AREA_SQM": 238222566.049829, "NUTS3_2021": "BG331", "FID": "BG003C"}, "id": "BG003C"}, {"type": "Feature", "geometry": {"type": "Point", "coordinates": [27.415, 42.5278]}, "properties": {"URAU_CODE": "BG004C", "URAU_CATG": "C", "CNTR_CODE": "BG", "URAU_NAME": "Burgas", "CITY_CPTL": null, "FUA_CODE": "BG004F", "AREA_SQM": 560023682.214179, "NUTS3_2021": "BG341", "FID": "BG004C"}, "id": "BG004C"}, {"type": "Feature", "geometry": {"type": "Point", "coordinates": [24.6687, 43.388]}, "properties": {"URAU_CODE": "BG005C", "URAU_CATG": "C", "CNTR_CODE": "BG", "URAU_NAME": "Pleven", "CITY_CPTL": null, "FUA_CODE": "BG005F", "AREA_SQM": 809761012.898627, "NUTS3_2021": "BG314", "FID": "BG005C"}, "id": "BG005C"}, {"type": "Feature", "geometry": {"type": "Point", "coordinates": [26.1171, 43.8241]}, "properties": {"URAU_CODE": "BG006C", "URAU_CATG": "C", "CNTR_CODE": "BG", "URAU_NAME": "Ruse", "CITY_CPTL": null, "FUA_CODE": "BG006F", "AREA_SQM": 568926148.420323, "NUTS3_2021": "BG323", "FID": "BG006C"}, "id": "BG006C"}, {"type": "Feature", "geometry": {"type": "Point", "coordinates": [22.819, 43.9824]}, "properties": {"URAU_CODE": "BG007C", "URAU_CATG": "C", "CNTR_CODE": "BG", "URAU_NAME": "Vidin", "CITY_CPTL": null, "FUA_CODE": "BG007F", "AREA_SQM": 515581923.563424, "NUTS3_2021": "BG311", "FID": "BG007C"}, "id": "BG007C"}, {"type": "Feature", "geometry": {"type": "Point", "coordinates": [25.6136, 42.4067]}, "properties": {"URAU_CODE": "BG008C", "URAU_CATG": "C", "CNTR_CODE": "BG", "URAU_NAME": "Stara Zagora", "CITY_CPTL": null, "FUA_CODE": "BG008F", "AREA_SQM": 1093722051.32051, "NUTS3_2021": "BG344", "FID": "BG008C"}, "id": "BG008C"}, {"type": "Feature", "geometry": {"type": "Point", "coordinates": [26.3113, 42.6711]}, "properties": {"URAU_CODE": "BG009C", "URAU_CATG": "C", "CNTR_CODE": "BG", "URAU_NAME": "Sliven", "CITY_CPTL": null, "FUA_CODE": "BG009F", "AREA_SQM": 1366636841.95214, "NUTS3_2021": "BG342", "FID": "BG009C"}, "id": "BG009C"}, {"type": "Feature", "geometry": {"type": "Point", "coordinates": [27.8037, 43.5787]}, "properties": {"URAU_CODE": "BG010C", "URAU_CATG": "C", "CNTR_CODE": "BG", "URAU_NAME": "Dobrich", "CITY_CPTL": null, "FUA_CODE": "BG010F", "AREA_SQM": 109022028.774182, "NUTS3_2021": "BG332", "FID": "BG010C"}, "id": "BG010C"}, {"type": "Feature", "geometry": {"type": "Point", "coordinates": [26.9792, 43.2536]}, "properties": {"URAU_CODE": "BG011C", "URAU_CATG": "C", "CNTR_CODE": "BG", "URAU_NAME": "Shumen", "CITY_CPTL": null, "FUA_CODE": "BG011F", "AREA_SQM": 656267258.041162, "NUTS3_2021": "BG333", "FID": "BG011C"}, "id": "BG011C"}, {"type": "Feature", "geometry": {"type": "Point", "coordinates": [25.4419, 43.0927]}, "properties": {"URAU_CODE": "BG017C", "URAU_CATG": "C", "CNTR_CODE": "BG", "URAU_NAME": "Veliko Tarnovo", "CITY_CPTL": null, "FUA_CODE": "BG017F", "AREA_SQM": 885096601.766329, "NUTS3_2021": "BG321", "FID": "BG017C"}, "id": "BG017C"}, {"type": "Feature", "geometry": {"type": "Point", "coordinates": [23.0776, 42.6015]}, "properties": {"URAU_CODE": "BG012C", "URAU_CATG": "C", "CNTR_CODE": "BG", "URAU_NAME": "Pernik", "CITY_CPTL": null, "FUA_CODE": "BG001F", "AREA_SQM": 484127021.772987, "NUTS3_2021": "BG414", "FID": "BG012C"}, "id": "BG012C"}, {"type": "Feature", "geometry": {"type": "Point", "coordinates": [26.4944, 42.4823]}, "properties": {"URAU_CODE": "BG013C", "URAU_CATG": "C", "CNTR_CODE": "BG", "URAU_NAME": "Yambol", "CITY_CPTL": null, "FUA_CODE": "BG013F", "AREA_SQM": 90674660.1817869, "NUTS3_2021": "BG343", "FID": "BG013C"}, "id": "BG013C"}, {"type": "Feature", "geometry": {"type": "Point", "coordinates": [23.6106, 43.2839]}, "properties": {"URAU_CODE": "BG018C", "URAU_CATG": "C", "CNTR_CODE": "BG", "URAU_NAME": "Vratsa", "CITY_CPTL": null, "FUA_CODE": "BG018F", "AREA_SQM": 706074818.66817, "NUTS3_2021": "BG313", "FID": "BG018C"}, "id": "BG018C"}, {"type": "Feature", "geometry": {"type": "Point", "coordinates": [25.5962, 41.8913]}, "properties": {"URAU_CODE": "BG014C", "URAU_CATG": "C", "CNTR_CODE": "BG", "URAU_NAME": "Haskovo", "CITY_CPTL": null, "FUA_CODE": "BG014F", "AREA_SQM": 739674485.832074, "NUTS3_2021": "BG422", "FID": "BG014C"}, "id": "BG014C"}, {"type": "Feature", "geometry": {"type": "Point", "coordinates": [7.4273, 46.9369]}, "properties": {"URAU_CODE": "CH001C", "URAU_CATG": "C", "CNTR_CODE": "CH", "URAU_NAME": "Bern", "CITY_CPTL": "Y", "FUA_CODE": "CH001F", "AREA_SQM": 139138531.252147, "NUTS3_2021": "CH021", "FID": "CH001C"}, "id": "CH001C"}, {"type": "Feature", "geometry": {"type": "Point", "coordinates": [8.5938, 47.3855]}, "properties": {"URAU_CODE": "CH002C", "URAU_CATG": "C", "CNTR_CODE": "CH", "URAU_NAME": "Zürich", "CITY_CPTL": null, "FUA_CODE": "CH002F", "AREA_SQM": 238110043.236047, "NUTS3_2021": "CH040", "FID": "CH002C"}, "id": "CH002C"}, {"type": "Feature", "geometry": {"type": "Point", "coordinates": [16.3779, 48.2086]}, "properties": {"URAU_CODE": "AT001C", "URAU_CATG": "C", "CNTR_CODE": "AT", "URAU_NAME": "Wien", "CITY_CPTL": "Y", "FUA_CODE": "AT001F", "AREA_SQM": 413467053.21263, "NUTS3_2021": "AT130", "FID": "AT001C"}, "id": "AT001C"}, {"type": "Feature", "geometry": {"type": "Point", "coordinates": [15.4391, 47.0755]}, "properties": {"URAU_CODE": "AT002C", "URAU_CATG": "C", "CNTR_CODE": "AT", "URAU_NAME": "Graz", "CITY_CPTL": null, "FUA_CODE": "AT002F", "AREA_SQM": 128674106.141416, "NUTS3_2021": "AT221", "FID": "AT002C"}, "id": "AT002C"}, {"type": "Feature", "geometry": {"type": "Point", "coordinates": [6.1173, 46.1969]}, "properties": {"URAU_CODE": "CH003C", "URAU_CATG": "C", "CNTR_CODE": "CH", "URAU_NAME": "Genève", "CITY_CPTL": null, "FUA_CODE": "CH003F", "AREA_SQM": 82448168.0247459, "NUTS3_2021": "CH013", "FID": "CH003C"}, "id": "CH003C"}, {"type": "Feature", "geometry": {"type": "Point", "coordinates": [7.6011, 47.5274]}, "properties": {"URAU_CODE": "CH004C", "URAU_CATG": "C", "CNTR_CODE": "CH", "URAU_NAME": "Basel", "CITY_CPTL": null, "FUA_CODE": "CH004F", "AREA_SQM": 119925552.744589, "NUTS3_2021": "CH031", "FID": "CH004C"}, "id": "CH004C"}, {"type": "Feature", "geometry": {"type": "Point", "coordinates": [6.6415, 46.5444]}, "properties": {"URAU_CODE": "CH005C", "URAU_CATG": "C", "CNTR_CODE": "CH", "URAU_NAME": "Lausanne", "CITY_CPTL": null, "FUA_CODE": "CH005F", "AREA_SQM": 91713213.6197661, "NUTS3_2021": "CH011", "FID": "CH005C"}, "id": "CH005C"}, {"type": "Feature", "geometry": {"type": "Point", "coordinates": [14.316, 48.2843]}, "properties": {"URAU_CODE": "AT003C", "URAU_CATG": "C", "CNTR_CODE": "AT", "URAU_NAME": "Linz", "CITY_CPTL": null, "FUA_CODE": "AT003F", "AREA_SQM": 95500095.0509343, "NUTS3_2021": "AT312", "FID": "AT003C"}, "id": "AT003C"}, {"type": "Feature", "geometry": {"type": "Point", "coordinates": [13.0466, 47.7979]}, "properties": {"URAU_CODE": "AT004C", "URAU_CATG": "C", "CNTR_CODE": "AT", "URAU_NAME": "Salzburg", "CITY_CPTL": null, "FUA_CODE": "AT004F", "AREA_SQM": 66418924.1831754, "NUTS3_2021": "AT323", "FID": "AT004C"}, "id": "AT004C"}, {"type": "Feature", "geometry": {"type": "Point", "coordinates": [11.3808, 47.2892]}, "properties": {"URAU_CODE": "AT005C", "URAU_CATG": "C", "CNTR_CODE": "AT", "URAU_NAME": "Innsbruck", "CITY_CPTL": null, "FUA_CODE": "AT005F", "AREA_SQM": 104521316.526565, "NUTS3_2021": "AT332", "FID": "AT005C"}, "id": "AT005C"}, {"type": "Feature", "geometry": {"type": "Point", "coordinates": [8.2787, 47.0546]}, "properties": {"URAU_CODE": "CH006C", "URAU_CATG": "C", "CNTR_CODE": "CH", "URAU_NAME": "Luzern", "CITY_CPTL": null, "FUA_CODE": "CH006F", "AREA_SQM": 105580514.661795, "NUTS3_2021": "CH061", "FID": "CH006C"}, "id": "CH006C"}, {"type": "Feature", "geometry": {"type": "Point", "coordinates": [8.7342, 47.4968]}, "properties": {"URAU_CODE": "CH007C", "URAU_CATG": "C", "CNTR_CODE": "CH", "URAU_NAME": "Winterthur", "CITY_CPTL": null, "FUA_CODE": "CH002F", "AREA_SQM": 68030973.6115368, "NUTS3_2021": "CH040", "FID": "CH007C"}, "id": "CH007C"}, {"type": "Feature", "geometry": {"type": "Point", "coordinates": [8.9948, 46.0399]}, "properties": {"URAU_CODE": "CH008C", "URAU_CATG": "C", "CNTR_CODE": "CH", "URAU_NAME": "Lugano", "CITY_CPTL": null, "FUA_CODE": "CH008F", "AREA_SQM": 88263798.4528737, "NUTS3_2021": "CH070", "FID": "CH008C"}, "id": "CH008C"}, {"type": "Feature", "geometry": {"type": "Point", "coordinates": [18.7102, 45.5414]}, "properties": {"URAU_CODE": "HR004C", "URAU_CATG": "C", "CNTR_CODE": "HR", "URAU_NAME": "Osijek", "CITY_CPTL": null, "FUA_CODE": "HR004F", "AREA_SQM": 174778892.541412, "NUTS3_2021": "HR025", "FID": "HR004C"}, "id": "HR004C"}, {"type": "Feature", "geometry": {"type": "Point", "coordinates": [16.5775, 43.52]}, "properties": {"URAU_CODE": "HR005C", "URAU_CATG": "C", "CNTR_CODE": "HR", "URAU_NAME": "Split", "CITY_CPTL": null, "FUA_CODE": "HR005F", "AREA_SQM": 79158120.7492231, "NUTS3_2021": "HR035", "FID": "HR005C"}, "id": "HR005C"}, {"type": "Feature", "geometry": {"type": "Point", "coordinates": [-7.0991, 52.2019]}, "properties": {"URAU_CODE": "IE005C", "URAU_CATG": "C", "CNTR_CODE": "IE", "URAU_NAME": "Waterford", "CITY_CPTL": null, "FUA_CODE": "IE005F", "AREA_SQM": 223739044.23482, "NUTS3_2021": "IE052", "FID": "IE005C"}, "id": "IE005C"}, {"type": "Feature", "geometry": {"type": "Point", "coordinates": [4.0405, 49.2615]}, "properties": {"URAU_CODE": "FR017C", "URAU_CATG": "C", "CNTR_CODE": "FR", "URAU_NAME": "Reims", "CITY_CPTL": null, "FUA_CODE": "FR017F", "AREA_SQM": 79927398.974409, "NUTS3_2021": "FRF23", "FID": "FR017C"}, "id": "FR017C"}, {"type": "Feature", "geometry": {"type": "Point", "coordinates": [1.9037, 47.8939]}, "properties": {"URAU_CODE": "FR018C", "URAU_CATG": "C", "CNTR_CODE": "FR", "URAU_NAME": "Orléans", "CITY_CPTL": null, "FUA_CODE": "FR018F", "AREA_SQM": 152385880.922073, "NUTS3_2021": "FRB06", "FID": "FR018C"}, "id": "FR018C"}, {"type": "Feature", "geometry": {"type": "Point", "coordinates": [6.1867, 48.6895]}, "properties": {"URAU_CODE": "FR019C", "URAU_CATG": "C", "CNTR_CODE": "FR", "URAU_NAME": "Nancy", "CITY_CPTL": null, "FUA_CODE": "FR019F", "AREA_SQM": 88037217.0962659, "NUTS3_2021": "FRF31", "FID": "FR019C"}, "id": "FR019C"}, {"type": "Feature", "geometry": {"type": "Point", "coordinates": [5.0386, 47.3243]}, "properties": {"URAU_CODE": "FR020C", "URAU_CATG": "C", "CNTR_CODE": "FR", "URAU_NAME": "Dijon", "CITY_CPTL": null, "FUA_CODE": "FR020F", "AREA_SQM": 68822490.7948007, "NUTS3_2021": "FRC11", "FID": "FR020C"}, "id": "FR020C"}, {"type": "Feature", "geometry": {"type": "Point", "coordinates": [3.1042, 45.776]}, "properties": {"URAU_CODE": "FR021C", "URAU_CATG": "C", "CNTR_CODE": "FR", "URAU_NAME": "Clermont-Ferrand", "CITY_CPTL": null, "FUA_CODE": "FR021F", "AREA_SQM": 65345214.6298394, "NUTS3_2021": "FRK14", "FID": "FR021C"}, "id": "FR021C"}, {"type": "Feature", "geometry": {"type": "Point", "coordinates": [13.8859, 44.8677]}, "properties": {"URAU_CODE": "HR006C", "URAU_CATG": "C", "CNTR_CODE": "HR", "URAU_NAME": "Pula/Pola", "CITY_CPTL": null, "FUA_CODE": "HR006F", "AREA_SQM": 53635797.3780514, "NUTS3_2021": "HR036", "FID": "HR006C"}, "id": "HR006C"}, {"type": "Feature", "geometry": {"type": "Point", "coordinates": [22.3223, 60.529]}, "properties": {"URAU_CODE": "FI003C", "URAU_CATG": "C", "CNTR_CODE": "FI", "URAU_NAME": "Turku/Åbo", "CITY_CPTL": null, "FUA_CODE": "FI003F", "AREA_SQM": 248159334.626031, "NUTS3_2021": "FI1C1", "FID": "FI003C"}, "id": "FI003C"}, {"type": "Feature", "geometry": {"type": "Point", "coordinates": [0.2067, 49.4873]}, "properties": {"URAU_CODE": "FR022C", "URAU_CATG": "C", "CNTR_CODE": "FR", "URAU_NAME": "Le Havre", "CITY_CPTL": null, "FUA_CODE": "FR022F", "AREA_SQM": 86209318.4449361, "NUTS3_2021": "FRD22", "FID": "FR022C"}, "id": "FR022C"}, {"type": "Feature", "geometry": {"type": "Point", "coordinates": [4.4277, 45.4258]}, "properties": {"URAU_CODE": "FR023C", "URAU_CATG": "C", "CNTR_CODE": "FR", "URAU_NAME": "Saint-Étienne", "CITY_CPTL": null, "FUA_CODE": "FR023F", "AREA_SQM": 121974165.590326, "NUTS3_2021": "FRK25", "FID": "FR023C"}, "id": "FR023C"}, {"type": "Feature", "geometry": {"type": "Point", "coordinates": [-0.5357, 47.4686]}, "properties": {"URAU_CODE": "FR024C", "URAU_CATG": "C", "CNTR_CODE": "FR", "URAU_NAME": "Angers", "CITY_CPTL": null, "FUA_CODE": "FR024F", "AREA_SQM": 106952384.303488, "NUTS3_2021": "FRG02", "FID": "FR024C"}, "id": "FR024C"}, {"type": "Feature", "geometry": {"type": "Point", "coordinates": [7.3331, 47.7621]}, "properties": {"URAU_CODE": "FR025C", "URAU_CATG": "C", "CNTR_CODE": "FR", "URAU_NAME": "Mulhouse", "CITY_CPTL": null, "FUA_CODE": "FR025F", "AREA_SQM": 115708819.344238, "NUTS3_2021": "FRF12", "FID": "FR025C"}, "id": "FR025C"}, {"type": "Feature", "geometry": {"type": "Point", "coordinates": [-21.7487, 64.0708]}, "properties": {"URAU_CODE": "IS001C", "URAU_CATG": "C", "CNTR_CODE": "IS", "URAU_NAME": "Reykjavík", "CITY_CPTL": "Y", "FUA_CODE": "IS001F", "AREA_SQM": 761864285.928842, "NUTS3_2021": "IS001", "FID": "IS001C"}, "id": "IS001C"}, {"type": "Feature", "geometry": {"type": "Point", "coordinates": [2.874, 50.4225]}, "properties": {"URAU_CODE": "FR026C", "URAU_CATG": "C", "CNTR_CODE": "FR", "URAU_NAME": "Lens", "CITY_CPTL": null, "FUA_CODE": "FR026F", "AREA_SQM": 119403301.928364, "NUTS3_2021": "FRE12", "FID": "FR026C"}, "id": "FR026C"}, {"type": "Feature", "geometry": {"type": "Point", "coordinates": [6.1902, 49.1024]}, "properties": {"URAU_CODE": "FR027C", "URAU_CATG": "C", "CNTR_CODE": "FR", "URAU_NAME": "Metz", "CITY_CPTL": null, "FUA_CODE": "FR027F", "AREA_SQM": 71828407.0952252, "NUTS3_2021": "FRF33", "FID": "FR027C"}, "id": "FR027C"}, {"type": "Feature", "geometry": {"type": "Point", "coordinates": [-15.4831, 27.8597]}, "properties": {"URAU_CODE": "ES057C", "URAU_CATG": "C", "CNTR_CODE": "ES", "URAU_NAME": "Santa Lucía de Tirajana", "CITY_CPTL": null, "FUA_CODE": "ES057F", "AREA_SQM": 62622649.2270601, "NUTS3_2021": "ES705", "FID": "ES057C"}, "id": "ES057C"}, {"type": "Feature", "geometry": {"type": "Point", "coordinates": [2.2106, 41.5429]}, "properties": {"URAU_CODE": "ES058C", "URAU_CATG": "C", "CNTR_CODE": "ES", "URAU_NAME": "Mollet del Vallès", "CITY_CPTL": null, "FUA_CODE": "ES002F", "AREA_SQM": 10799369.4970582, "NUTS3_2021": "ES511", "FID": "ES058C"}, "id": "ES058C"}, {"type": "Feature", "geometry": {"type": "Point", "coordinates": [28.1139, 59.3476]}, "properties": {"URAU_CODE": "EE003C", "URAU_CATG": "C", "CNTR_CODE": "EE", "URAU_NAME": "Narva", "CITY_CPTL": null, "FUA_CODE": "EE003F", "AREA_SQM": 68318842.8642042, "NUTS3_2021": "EE00A", "FID": "EE003C"}, "id": "EE003C"}, {"type": "Feature", "geometry": {"type": "Point", "coordinates": [-4.0152, 39.87]}, "properties": {"URAU_CODE": "ES016C", "URAU_CATG": "C", "CNTR_CODE": "ES", "URAU_NAME": "Toledo", "CITY_CPTL": null, "FUA_CODE": "ES016F", "AREA_SQM": 232153677.628652, "NUTS3_2021": "ES425", "FID": "ES016C"}, "id": "ES016C"}, {"type": "Feature", "geometry": {"type": "Point", "coordinates": [-2.0263, 40.0228]}, "properties": {"URAU_CODE": "ES088C", "URAU_CATG": "C", "CNTR_CODE": "ES", "URAU_NAME": "Cuenca", "CITY_CPTL": null, "FUA_CODE": "ES088F", "AREA_SQM": 910962573.046083, "NUTS3_2021": "ES423", "FID": "ES088C"}, "id": "ES088C"}, {"type": "Feature", "geometry": {"type": "Point", "coordinates": [1.4189, 38.9137]}, "properties": {"URAU_CODE": "ES089C", "URAU_CATG": "C", "CNTR_CODE": "ES", "URAU_NAME": "Eivissa", "CITY_CPTL": null, "FUA_CODE": "ES089F", "AREA_SQM": 11117837.6516985, "NUTS3_2021": "ES531", "FID": "ES089C"}, "id": "ES089C"}, {"type": "Feature", "geometry": {"type": "Point", "coordinates": [-3.5741, 37.1481]}, "properties": {"URAU_CODE": "ES059C", "URAU_CATG": "C", "CNTR_CODE": "ES", "URAU_NAME": "Granada", "CITY_CPTL": null, "FUA_CODE": "ES059F", "AREA_SQM": 289421144.537008, "NUTS3_2021": "ES614", "FID": "ES059C"}, "id": "ES059C"}, {"type": "Feature", "geometry": {"type": "Point", "coordinates": [-0.6648, 38.2472]}, "properties": {"URAU_CODE": "ES060C", "URAU_CATG": "C", "CNTR_CODE": "ES", "URAU_NAME": "Elche/Elx", "CITY_CPTL": null, "FUA_CODE": "ES060F", "AREA_SQM": 326585698.072933, "NUTS3_2021": "ES521", "FID": "ES060C"}, "id": "ES060C"}, {"type": "Feature", "geometry": {"type": "Point", "coordinates": [-3.6368, 38.0961]}, "properties": {"URAU_CODE": "ES090C", "URAU_CATG": "C", "CNTR_CODE": "ES", "URAU_NAME": "Linares", "CITY_CPTL": null, "FUA_CODE": "ES090F", "AREA_SQM": 196697806.691109, "NUTS3_2021": "ES616", "FID": "ES090C"}, "id": "ES090C"}, {"type": "Feature", "geometry": {"type": "Point", "coordinates": [-1.8585, 37.7679]}, "properties": {"URAU_CODE": "ES091C", "URAU_CATG": "C", "CNTR_CODE": "ES", "URAU_NAME": "Lorca", "CITY_CPTL": null, "FUA_CODE": "ES091F", "AREA_SQM": 1675205891.64973, "NUTS3_2021": "ES620", "FID": "ES091C"}, "id": "ES091C"}, {"type": "Feature", "geometry": {"type": "Point", "coordinates": [10.3708, 52.1244]}, "properties": {"URAU_CODE": "DE114C", "URAU_CATG": "C", "CNTR_CODE": "DE", "URAU_NAME": "Salzgitter", "CITY_CPTL": null, "FUA_CODE": "DE085F", "AREA_SQM": 225235900.67445, "NUTS3_2021": "DE912", "FID": "DE114C"}, "id": "DE114C"}, {"type": "Feature", "geometry": {"type": "Point", "coordinates": [9.1885, 48.4935]}, "properties": {"URAU_CODE": "DE115C", "URAU_CATG": "C", "CNTR_CODE": "DE", "URAU_NAME": "Reutlingen", "CITY_CPTL": null, "FUA_CODE": "DE115F", "AREA_SQM": 86229958.2915171, "NUTS3_2021": "DE141", "FID": "DE115C"}, "id": "DE115C"}, {"type": "Feature", "geometry": {"type": "Point", "coordinates": [23.7567, 38.0217]}, "properties": {"URAU_CODE": "EL001C", "URAU_CATG": "C", "CNTR_CODE": "EL", "URAU_NAME": "Athina", "CITY_CPTL": "Y", "FUA_CODE": "EL001F", "AREA_SQM": 612752645.579072, "NUTS3_2021": "EL303", "FID": "EL001C"}, "id": "EL001C"}, {"type": "Feature", "geometry": {"type": "Point", "coordinates": [22.9529, 40.6383]}, "properties": {"URAU_CODE": "EL002C", "URAU_CATG": "C", "CNTR_CODE": "EL", "URAU_NAME": "Thessaloniki", "CITY_CPTL": null, "FUA_CODE": "EL002F", "AREA_SQM": 112672602.087212, "NUTS3_2021": "EL522", "FID": "EL002C"}, "id": "EL002C"}, {"type": "Feature", "geometry": {"type": "Point", "coordinates": [21.7511, 38.244]}, "properties": {"URAU_CODE": "EL003C", "URAU_CATG": "C", "CNTR_CODE": "EL", "URAU_NAME": "Pátra", "CITY_CPTL": null, "FUA_CODE": "EL003F", "AREA_SQM": 57732309.4146172, "NUTS3_2021": "EL632", "FID": "EL003C"}, "id": "EL003C"}, {"type": "Feature", "geometry": {"type": "Point", "coordinates": [25.1207, 35.31]}, "properties": {"URAU_CODE": "EL004C", "URAU_CATG": "C", "CNTR_CODE": "EL", "URAU_NAME": "Irakleio", "CITY_CPTL": null, "FUA_CODE": "EL004F", "AREA_SQM": 52067217.3239223, "NUTS3_2021": "EL431", "FID": "EL004C"}, "id": "EL004C"}, {"type": "Feature", "geometry": {"type": "Point", "coordinates": [-6.85, 38.8677]}, "properties": {"URAU_CODE": "ES017C", "URAU_CATG": "C", "CNTR_CODE": "ES", "URAU_NAME": "Badajoz", "CITY_CPTL": null, "FUA_CODE": "ES017F", "AREA_SQM": 1440281861.96549, "NUTS3_2021": "ES431", "FID": "ES017C"}, "id": "ES017C"}, {"type": "Feature", "geometry": {"type": "Point", "coordinates": [-2.4543, 42.4638]}, "properties": {"URAU_CODE": "ES018C", "URAU_CATG": "C", "CNTR_CODE": "ES", "URAU_NAME": "Logroño", "CITY_CPTL": null, "FUA_CODE": "ES018F", "AREA_SQM": 78957185.3232889, "NUTS3_2021": "ES230", "FID": "ES018C"}, "id": "ES018C"}, {"type": "Feature", "geometry": {"type": "Point", "coordinates": [-2.9731, 43.2842]}, "properties": {"URAU_CODE": "ES019C", "URAU_CATG": "C", "CNTR_CODE": "ES", "URAU_NAME": "Bilbao", "CITY_CPTL": null, "FUA_CODE": "ES019F", "AREA_SQM": 174682500.488192, "NUTS3_2021": "ES213", "FID": "ES019C"}, "id": "ES019C"}, {"type": "Feature", "geometry": {"type": "Point", "coordinates": [10.9654, 49.4914]}, "properties": {"URAU_CODE": "DE116C", "URAU_CATG": "C", "CNTR_CODE": "DE", "URAU_NAME": "Fürth", "CITY_CPTL": null, "FUA_CODE": "DE014F", "AREA_SQM": 63352975.7059201, "NUTS3_2021": "DE253", "FID": "DE116C"}, "id": "DE116C"}, {"type": "Feature", "geometry": {"type": "Point", "coordinates": [14.3663, 51.7726]}, "properties": {"URAU_CODE": "DE117C", "URAU_CATG": "C", "CNTR_CODE": "DE", "URAU_NAME": "Cottbus", "CITY_CPTL": null, "FUA_CODE": "DE117F", "AREA_SQM": 165018097.572262, "NUTS3_2021": "DE402", "FID": "DE117C"}, "id": "DE117C"}, {"type": "Feature", "geometry": {"type": "Point", "coordinates": [8.0118, 50.881]}, "properties": {"URAU_CODE": "DE118C", "URAU_CATG": "C", "CNTR_CODE": "DE", "URAU_NAME": "Siegen", "CITY_CPTL": null, "FUA_CODE": "DE118F", "AREA_SQM": 114888201.099251, "NUTS3_2021": "DEA5A", "FID": "DE118C"}, "id": "DE118C"}, {"type": "Feature", "geometry": {"type": "Point", "coordinates": [22.4322, 39.6336]}, "properties": {"URAU_CODE": "EL005C", "URAU_CATG": "C", "CNTR_CODE": "EL", "URAU_NAME": "Larisa", "CITY_CPTL": null, "FUA_CODE": "EL005F", "AREA_SQM": 88336977.9853193, "NUTS3_2021": "EL612", "FID": "EL005C"}, "id": "EL005C"}, {"type": "Feature", "geometry": {"type": "Point", "coordinates": [22.9573, 39.37]}, "properties": {"URAU_CODE": "EL006C", "URAU_CATG": "C", "CNTR_CODE": "EL", "URAU_NAME": "Volos", "CITY_CPTL": null, "FUA_CODE": "EL006F", "AREA_SQM": 27045361.7109153, "NUTS3_2021": "EL613", "FID": "EL006C"}, "id": "EL006C"}, {"type": "Feature", "geometry": {"type": "Point", "coordinates": [20.8582, 39.6586]}, "properties": {"URAU_CODE": "EL007C", "URAU_CATG": "C", "CNTR_CODE": "EL", "URAU_NAME": "Ioannina", "CITY_CPTL": null, "FUA_CODE": "EL007F", "AREA_SQM": 15574640.7554956, "NUTS3_2021": "EL543", "FID": "EL007C"}, "id": "EL007C"}, {"type": "Feature", "geometry": {"type": "Point", "coordinates": [24.4303, 40.9576]}, "properties": {"URAU_CODE": "EL008C", "URAU_CATG": "C", "CNTR_CODE": "EL", "URAU_NAME": "Kavala", "CITY_CPTL": null, "FUA_CODE": "EL008F", "AREA_SQM": 42171893.7643224, "NUTS3_2021": "EL515", "FID": "EL008C"}, "id": "EL008C"}, {"type": "Feature", "geometry": {"type": "Point", "coordinates": [22.1182, 37.0534]}, "properties": {"URAU_CODE": "EL009C", "URAU_CATG": "C", "CNTR_CODE": "EL", "URAU_NAME": "Kalamata", "CITY_CPTL": null, "FUA_CODE": "EL009F", "AREA_SQM": 42631736.598282, "NUTS3_2021": "EL653", "FID": "EL009C"}, "id": "EL009C"}, {"type": "Feature", "geometry": {"type": "Point", "coordinates": [-4.7018, 37.8492]}, "properties": {"URAU_CODE": "ES020C", "URAU_CATG": "C", "CNTR_CODE": "ES", "URAU_NAME": "Córdoba", "CITY_CPTL": null, "FUA_CODE": "ES020F", "AREA_SQM": 1254200032.12269, "NUTS3_2021": "ES613", "FID": "ES020C"}, "id": "ES020C"}, {"type": "Feature", "geometry": {"type": "Point", "coordinates": [-0.5474, 38.3698]}, "properties": {"URAU_CODE": "ES021C", "URAU_CATG": "C", "CNTR_CODE": "ES", "URAU_NAME": "Alicante/Alacant", "CITY_CPTL": null, "FUA_CODE": "ES021F", "AREA_SQM": 200866613.313036, "NUTS3_2021": "ES521", "FID": "ES021C"}, "id": "ES021C"}, {"type": "Feature", "geometry": {"type": "Point", "coordinates": [-7.5648, 43.0013]}, "properties": {"URAU_CODE": "ES028C", "URAU_CATG": "C", "CNTR_CODE": "ES", "URAU_NAME": "Lugo", "CITY_CPTL": null, "FUA_CODE": "ES028F", "AREA_SQM": 329754789.753651, "NUTS3_2021": "ES112", "FID": "ES028C"}, "id": "ES028C"}, {"type": "Feature", "geometry": {"type": "Point", "coordinates": [-6.2046, 36.4531]}, "properties": {"URAU_CODE": "ES029C", "URAU_CATG": "C", "CNTR_CODE": "ES", "URAU_NAME": "San Fernando", "CITY_CPTL": null, "FUA_CODE": "ES071F", "AREA_SQM": 30620745.1307397, "NUTS3_2021": "ES612", "FID": "ES029C"}, "id": "ES029C"}, {"type": "Feature", "geometry": {"type": "Point", "coordinates": [2.8353, 41.9848]}, "properties": {"URAU_CODE": "ES030C", "URAU_CATG": "C", "CNTR_CODE": "ES", "URAU_NAME": "Girona", "CITY_CPTL": null, "FUA_CODE": "ES030F", "AREA_SQM": 38802797.7446609, "NUTS3_2021": "ES512", "FID": "ES030C"}, "id": "ES030C"}, {"type": "Feature", "geometry": {"type": "Point", "coordinates": [7.1544, 50.9791]}, "properties": {"URAU_CODE": "DE119C", "URAU_CATG": "C", "CNTR_CODE": "DE", "URAU_NAME": "Bergisch Gladbach", "CITY_CPTL": null, "FUA_CODE": "DE004F", "AREA_SQM": 83231901.9450698, "NUTS3_2021": "DEA2B", "FID": "DE119C"}, "id": "DE119C"}, {"type": "Feature", "geometry": {"type": "Point", "coordinates": [9.9438, 52.1447]}, "properties": {"URAU_CODE": "DE120C", "URAU_CATG": "C", "CNTR_CODE": "DE", "URAU_NAME": "Hildesheim", "CITY_CPTL": null, "FUA_CODE": "DE120F", "AREA_SQM": 93132499.6070818, "NUTS3_2021": "DE925", "FID": "DE120C"}, "id": "DE120C"}, {"type": "Feature", "geometry": {"type": "Point", "coordinates": [7.3348, 51.4325]}, "properties": {"URAU_CODE": "DE121C", "URAU_CATG": "C", "CNTR_CODE": "DE", "URAU_NAME": "Witten", "CITY_CPTL": null, "FUA_CODE": "DE006F", "AREA_SQM": 72863549.0410087, "NUTS3_2021": "DEA56", "FID": "DE121C"}, "id": "DE121C"}, {"type": "Feature", "geometry": {"type": "Point", "coordinates": [12.4812, 50.7282]}, "properties": {"URAU_CODE": "DE122C", "URAU_CATG": "C", "CNTR_CODE": "DE", "URAU_NAME": "Zwickau", "CITY_CPTL": null, "FUA_CODE": "DE122F", "AREA_SQM": 103190323.025281, "NUTS3_2021": "DED45", "FID": "DE122C"}, "id": "DE122C"}, {"type": "Feature", "geometry": {"type": "Point", "coordinates": [21.762, 39.5552]}, "properties": {"URAU_CODE": "EL010C", "URAU_CATG": "C", "CNTR_CODE": "EL", "URAU_NAME": "Trikala", "CITY_CPTL": null, "FUA_CODE": "EL010F", "AREA_SQM": 69924018.8752721, "NUTS3_2021": "EL611", "FID": "EL010C"}, "id": "EL010C"}, {"type": "Feature", "geometry": {"type": "Point", "coordinates": [23.5407, 41.0741]}, "properties": {"URAU_CODE": "EL011C", "URAU_CATG": "C", "CNTR_CODE": "EL", "URAU_NAME": "Serres", "CITY_CPTL": null, "FUA_CODE": "EL011F", "AREA_SQM": 97425352.5718481, "NUTS3_2021": "EL526", "FID": "EL011C"}, "id": "EL011C"}, {"type": "Feature", "geometry": {"type": "Point", "coordinates": [22.5196, 40.2614]}, "properties": {"URAU_CODE": "EL012C", "URAU_CATG": "C", "CNTR_CODE": "EL", "URAU_NAME": "Katerini", "CITY_CPTL": null, "FUA_CODE": "EL012F", "AREA_SQM": 63216494.5685676, "NUTS3_2021": "EL525", "FID": "EL012C"}, "id": "EL012C"}, {"type": "Feature", "geometry": {"type": "Point", "coordinates": [24.8829, 41.1279]}, "properties": {"URAU_CODE": "EL013C", "URAU_CATG": "C", "CNTR_CODE": "EL", "URAU_NAME": "Xanthi", "CITY_CPTL": null, "FUA_CODE": "EL013F", "AREA_SQM": 32616794.8894018, "NUTS3_2021": "EL512", "FID": "EL013C"}, "id": "EL013C"}, {"type": "Feature", "geometry": {"type": "Point", "coordinates": [24.0368, 35.5119]}, "properties": {"URAU_CODE": "EL014C", "URAU_CATG": "C", "CNTR_CODE": "EL", "URAU_NAME": "Chania", "CITY_CPTL": null, "FUA_CODE": "EL014F", "AREA_SQM": 12554894.5218438, "NUTS3_2021": "EL434", "FID": "EL014C"}, "id": "EL014C"}, {"type": "Feature", "geometry": {"type": "Point", "coordinates": [-8.7145, 42.2027]}, "properties": {"URAU_CODE": "ES022C", "URAU_CATG": "C", "CNTR_CODE": "ES", "URAU_NAME": "Vigo", "CITY_CPTL": null, "FUA_CODE": "ES022F", "AREA_SQM": 108957115.652909, "NUTS3_2021": "ES114", "FID": "ES022C"}, "id": "ES022C"}, {"type": "Feature", "geometry": {"type": "Point", "coordinates": [-5.6823, 43.4998]}, "properties": {"URAU_CODE": "ES023C", "URAU_CATG": "C", "CNTR_CODE": "ES", "URAU_NAME": "Gijón", "CITY_CPTL": null, "FUA_CODE": "ES023F", "AREA_SQM": 181629089.963172, "NUTS3_2021": "ES120", "FID": "ES023C"}, "id": "ES023C"}, {"type": "Feature", "geometry": {"type": "Point", "coordinates": [10.9781, 49.5823]}, "properties": {"URAU_CODE": "DE123C", "URAU_CATG": "C", "CNTR_CODE": "DE", "URAU_NAME": "Erlangen", "CITY_CPTL": null, "FUA_CODE": "DE123F", "AREA_SQM": 78029419.8021267, "NUTS3_2021": "DE252", "FID": "DE123C"}, "id": "DE123C"}, {"type": "Feature", "geometry": {"type": "Point", "coordinates": [7.1689, 51.2507]}, "properties": {"URAU_CODE": "DE124C", "URAU_CATG": "C", "CNTR_CODE": "DE", "URAU_NAME": "Wuppertal", "CITY_CPTL": null, "FUA_CODE": "DE124F", "AREA_SQM": 168439821.492833, "NUTS3_2021": "DEA1A", "FID": "DE124C"}, "id": "DE124C"}, {"type": "Feature", "geometry": {"type": "Point", "coordinates": [-3.708, 40.4325]}, "properties": {"URAU_CODE": "ES001C", "URAU_CATG": "C", "CNTR_CODE": "ES", "URAU_NAME": "Madrid", "CITY_CPTL": "Y", "FUA_CODE": "ES001F", "AREA_SQM": 1232304581.13647, "NUTS3_2021": "ES300", "FID": "ES001C"}, "id": "ES001C"}, {"type": "Feature", "geometry": {"type": "Point", "coordinates": [-16.2653, 28.512]}, "properties": {"URAU_CODE": "ES024C", "URAU_CATG": "C", "CNTR_CODE": "ES", "URAU_NAME": "Santa Cruz de Tenerife", "CITY_CPTL": null, "FUA_CODE": "ES024F", "AREA_SQM": 252545623.15068, "NUTS3_2021": "ES709", "FID": "ES024C"}, "id": "ES024C"}, {"type": "Feature", "geometry": {"type": "Point", "coordinates": [18.8776, 50.3636]}, "properties": {"URAU_CODE": "PL057C", "URAU_CATG": "C", "CNTR_CODE": "PL", "URAU_NAME": "Bytom", "CITY_CPTL": null, "FUA_CODE": "PL010F", "AREA_SQM": 69482054.3300561, "NUTS3_2021": "PL228", "FID": "PL057C"}, "id": "PL057C"}, {"type": "Feature", "geometry": {"type": "Point", "coordinates": [19.0389, 49.813]}, "properties": {"URAU_CODE": "PL058C", "URAU_CATG": "C", "CNTR_CODE": "PL", "URAU_NAME": "Bielsko-Biała", "CITY_CPTL": null, "FUA_CODE": "PL058F", "AREA_SQM": 124431279.731796, "NUTS3_2021": "PL225", "FID": "PL058C"}, "id": "PL058C"}, {"type": "Feature", "geometry": {"type": "Point", "coordinates": [5.4286, 60.3586]}, "properties": {"URAU_CODE": "NO002C", "URAU_CATG": "C", "CNTR_CODE": "NO", "URAU_NAME": "Bergen", "CITY_CPTL": null, "FUA_CODE": "NO002F", "AREA_SQM": 464670447.694324, "NUTS3_2021": "NO0A2", "FID": "NO002C"}, "id": "NO002C"}, {"type": "Feature", "geometry": {"type": "Point", "coordinates": [19.0231, 50.218]}, "properties": {"URAU_CODE": "PL010C", "URAU_CATG": "C", "CNTR_CODE": "PL", "URAU_NAME": "Katowice", "CITY_CPTL": null, "FUA_CODE": "PL010F", "AREA_SQM": 164740481.942913, "NUTS3_2021": "PL22A", "FID": "PL010C"}, "id": "PL010C"}, {"type": "Feature", "geometry": {"type": "Point", "coordinates": [23.1588, 53.1322]}, "properties": {"URAU_CODE": "PL011C", "URAU_CATG": "C", "CNTR_CODE": "PL", "URAU_NAME": "Białystok", "CITY_CPTL": null, "FUA_CODE": "PL011F", "AREA_SQM": 102107046.08226, "NUTS3_2021": "PL841", "FID": "PL011C"}, "id": "PL011C"}, {"type": "Feature", "geometry": {"type": "Point", "coordinates": [18.8691, 50.2663]}, "properties": {"URAU_CODE": "PL059C", "URAU_CATG": "C", "CNTR_CODE": "PL", "URAU_NAME": "Ruda Śląska", "CITY_CPTL": null, "FUA_CODE": "PL010F", "AREA_SQM": 77635703.0469078, "NUTS3_2021": "PL22A", "FID": "PL059C"}, "id": "PL059C"}, {"type": "Feature", "geometry": {"type": "Point", "coordinates": [18.5442, 50.1056]}, "properties": {"URAU_CODE": "PL060C", "URAU_CATG": "C", "CNTR_CODE": "PL", "URAU_NAME": "Rybnik", "CITY_CPTL": null, "FUA_CODE": "PL060F", "AREA_SQM": 148254852.708139, "NUTS3_2021": "PL227", "FID": "PL060C"}, "id": "PL060C"}, {"type": "Feature", "geometry": {"type": "Point", "coordinates": [-25.7287, 37.8194]}, "properties": {"URAU_CODE": "PT007C", "URAU_CATG": "C", "CNTR_CODE": "PT", "URAU_NAME": "Ponta Delgada", "CITY_CPTL": null, "FUA_CODE": "PT007F", "AREA_SQM": 233080075.656137, "NUTS3_2021": "PT200", "FID": "PT007C"}, "id": "PT007C"}, {"type": "Feature", "geometry": {"type": "Point", "coordinates": [-8.6095, 40.632]}, "properties": {"URAU_CODE": "PT008C", "URAU_CATG": "C", "CNTR_CODE": "PT", "URAU_NAME": "Aveiro", "CITY_CPTL": null, "FUA_CODE": "PT008F", "AREA_SQM": 183470089.218414, "NUTS3_2021": "PT16D", "FID": "PT008C"}, "id": "PT008C"}, {"type": "Feature", "geometry": {"type": "Point", "coordinates": [10.4321, 63.3404]}, "properties": {"URAU_CODE": "NO003C", "URAU_CATG": "C", "CNTR_CODE": "NO", "URAU_NAME": "Trondheim", "CITY_CPTL": null, "FUA_CODE": "NO003F", "AREA_SQM": 528538167.983656, "NUTS3_2021": "NO060", "FID": "NO003C"}, "id": "NO003C"}, {"type": "Feature", "geometry": {"type": "Point", "coordinates": [20.609, 50.861]}, "properties": {"URAU_CODE": "PL012C", "URAU_CATG": "C", "CNTR_CODE": "PL", "URAU_NAME": "Kielce", "CITY_CPTL": null, "FUA_CODE": "PL012F", "AREA_SQM": 109663576.566814, "NUTS3_2021": "PL721", "FID": "PL012C"}, "id": "PL012C"}, {"type": "Feature", "geometry": {"type": "Point", "coordinates": [18.6189, 53.0211]}, "properties": {"URAU_CODE": "PL013C", "URAU_CATG": "C", "CNTR_CODE": "PL", "URAU_NAME": "Toruń", "CITY_CPTL": null, "FUA_CODE": "PL013F", "AREA_SQM": 115709974.604171, "NUTS3_2021": "PL613", "FID": "PL013C"}, "id": "PL013C"}, {"type": "Feature", "geometry": {"type": "Point", "coordinates": [20.4742, 53.7817]}, "properties": {"URAU_CODE": "PL014C", "URAU_CATG": "C", "CNTR_CODE": "PL", "URAU_NAME": "Olsztyn", "CITY_CPTL": null, "FUA_CODE": "PL014F", "AREA_SQM": 88326855.4403452, "NUTS3_2021": "PL622", "FID": "PL014C"}, "id": "PL014C"}, {"type": "Feature", "geometry": {"type": "Point", "coordinates": [19.0026, 50.1231]}, "properties": {"URAU_CODE": "PL061C", "URAU_CATG": "C", "CNTR_CODE": "PL", "URAU_NAME": "Tychy", "CITY_CPTL": null, "FUA_CODE": "PL010F", "AREA_SQM": 81815806.5402945, "NUTS3_2021": "PL22C", "FID": "PL061C"}, "id": "PL061C"}, {"type": "Feature", "geometry": {"type": "Point", "coordinates": [16.29, 50.7864]}, "properties": {"URAU_CODE": "PL062C", "URAU_CATG": "C", "CNTR_CODE": "PL", "URAU_NAME": "Wałbrzych", "CITY_CPTL": null, "FUA_CODE": "PL062F", "AREA_SQM": 84687554.6602249, "NUTS3_2021": "PL517", "FID": "PL062C"}, "id": "PL062C"}, {"type": "Feature", "geometry": {"type": "Point", "coordinates": [21.9947, 50.0221]}, "properties": {"URAU_CODE": "PL015C", "URAU_CATG": "C", "CNTR_CODE": "PL", "URAU_NAME": "Rzeszów", "CITY_CPTL": null, "FUA_CODE": "PL015F", "AREA_SQM": 126622446.418517, "NUTS3_2021": "PL823", "FID": "PL015C"}, "id": "PL015C"}, {"type": "Feature", "geometry": {"type": "Point", "coordinates": [19.4344, 54.1769]}, "properties": {"URAU_CODE": "PL063C", "URAU_CATG": "C", "CNTR_CODE": "PL", "URAU_NAME": "Elbląg", "CITY_CPTL": null, "FUA_CODE": "PL063F", "AREA_SQM": 79819012.4760686, "NUTS3_2021": "PL621", "FID": "PL063C"}, "id": "PL063C"}, {"type": "Feature", "geometry": {"type": "Point", "coordinates": [19.0575, 52.6613]}, "properties": {"URAU_CODE": "PL064C", "URAU_CATG": "C", "CNTR_CODE": "PL", "URAU_NAME": "Włocławek", "CITY_CPTL": null, "FUA_CODE": "PL064F", "AREA_SQM": 84342417.2594427, "NUTS3_2021": "PL619", "FID": "PL064C"}, "id": "PL064C"}, {"type": "Feature", "geometry": {"type": "Point", "coordinates": [20.9733, 50.0244]}, "properties": {"URAU_CODE": "PL065C", "URAU_CATG": "C", "CNTR_CODE": "PL", "URAU_NAME": "Tarnów", "CITY_CPTL": null, "FUA_CODE": "PL065F", "AREA_SQM": 72369258.4822346, "NUTS3_2021": "PL217", "FID": "PL065C"}, "id": "PL065C"}, {"type": "Feature", "geometry": {"type": "Point", "coordinates": [-7.9235, 37.0788]}, "properties": {"URAU_CODE": "PT009C", "URAU_CATG": "C", "CNTR_CODE": "PT", "URAU_NAME": "Faro", "CITY_CPTL": null, "FUA_CODE": "PT009F", "AREA_SQM": 182276946.006514, "NUTS3_2021": "PT150", "FID": "PT009C"}, "id": "PT009C"}, {"type": "Feature", "geometry": {"type": "Point", "coordinates": [17.9177, 50.6794]}, "properties": {"URAU_CODE": "PL016C", "URAU_CATG": "C", "CNTR_CODE": "PL", "URAU_NAME": "Opole", "CITY_CPTL": null, "FUA_CODE": "PL016F", "AREA_SQM": 149026269.881729, "NUTS3_2021": "PL524", "FID": "PL016C"}, "id": "PL016C"}, {"type": "Feature", "geometry": {"type": "Point", "coordinates": [15.2195, 52.7314]}, "properties": {"URAU_CODE": "PL017C", "URAU_CATG": "C", "CNTR_CODE": "PL", "URAU_NAME": "Gorzów Wielkopolski", "CITY_CPTL": null, "FUA_CODE": "PL017F", "AREA_SQM": 85723121.8676714, "NUTS3_2021": "PL431", "FID": "PL017C"}, "id": "PL017C"}, {"type": "Feature", "geometry": {"type": "Point", "coordinates": [18.9629, 50.3093]}, "properties": {"URAU_CODE": "PL066C", "URAU_CATG": "C", "CNTR_CODE": "PL", "URAU_NAME": "Chorzów", "CITY_CPTL": null, "FUA_CODE": "PL010F", "AREA_SQM": 33311599.9440253, "NUTS3_2021": "PL22A", "FID": "PL066C"}, "id": "PL066C"}, {"type": "Feature", "geometry": {"type": "Point", "coordinates": [16.1675, 51.2017]}, "properties": {"URAU_CODE": "PL067C", "URAU_CATG": "C", "CNTR_CODE": "PL", "URAU_NAME": "Legnica", "CITY_CPTL": null, "FUA_CODE": "PL067F", "AREA_SQM": 56278752.0232015, "NUTS3_2021": "PL516", "FID": "PL067C"}, "id": "PL067C"}, {"type": "Feature", "geometry": {"type": "Point", "coordinates": [18.7323, 53.449]}, "properties": {"URAU_CODE": "PL068C", "URAU_CATG": "C", "CNTR_CODE": "PL", "URAU_NAME": "Grudziądz", "CITY_CPTL": null, "FUA_CODE": "PL068F", "AREA_SQM": 57767672.4658677, "NUTS3_2021": "PL616", "FID": "PL068C"}, "id": "PL068C"}, {"type": "Feature", "geometry": {"type": "Point", "coordinates": [-9.3577, 38.823]}, "properties": {"URAU_CODE": "PT014C", "URAU_CATG": "C", "CNTR_CODE": "PT", "URAU_NAME": "Sintra", "CITY_CPTL": null, "FUA_CODE": "PT001F", "AREA_SQM": 319149468.359623, "NUTS3_2021": "PT170", "FID": "PT014C"}, "id": "PT014C"}, {"type": "Feature", "geometry": {"type": "Point", "coordinates": [15.5318, 51.9259]}, "properties": {"URAU_CODE": "PL018C", "URAU_CATG": "C", "CNTR_CODE": "PL", "URAU_NAME": "Zielona Góra", "CITY_CPTL": null, "FUA_CODE": "PL018F", "AREA_SQM": 278317752.47889, "NUTS3_2021": "PL432", "FID": "PL018C"}, "id": "PL018C"}, {"type": "Feature", "geometry": {"type": "Point", "coordinates": [-9.0492, 38.9111]}, "properties": {"URAU_CODE": "PT016C", "URAU_CATG": "C", "CNTR_CODE": "PT", "URAU_NAME": "Vila Franca de Xira", "CITY_CPTL": null, "FUA_CODE": "PT001F", "AREA_SQM": 296131470.38633, "NUTS3_2021": "PT170", "FID": "PT016C"}, "id": "PT016C"}, {"type": "Feature", "geometry": {"type": "Point", "coordinates": [15.7276, 50.8953]}, "properties": {"URAU_CODE": "PL019C", "URAU_CATG": "C", "CNTR_CODE": "PL", "URAU_NAME": "Jelenia Góra", "CITY_CPTL": null, "FUA_CODE": "PL019F", "AREA_SQM": 109285667.149651, "NUTS3_2021": "PL515", "FID": "PL019C"}, "id": "PL019C"}, {"type": "Feature", "geometry": {"type": "Point", "coordinates": [20.7047, 49.6074]}, "properties": {"URAU_CODE": "PL020C", "URAU_CATG": "C", "CNTR_CODE": "PL", "URAU_NAME": "Nowy Sącz", "CITY_CPTL": null, "FUA_CODE": "PL020F", "AREA_SQM": 57570239.4671493, "NUTS3_2021": "PL218", "FID": "PL020C"}, "id": "PL020C"}, {"type": "Feature", "geometry": {"type": "Point", "coordinates": [-8.3961, 41.1815]}, "properties": {"URAU_CODE": "PT012C", "URAU_CATG": "C", "CNTR_CODE": "PT", "URAU_NAME": "Paredes", "CITY_CPTL": null, "FUA_CODE": "PT002F", "AREA_SQM": 156759636.670926, "NUTS3_2021": "PT11A", "FID": "PT012C"}, "id": "PT012C"}, {"type": "Feature", "geometry": {"type": "Point", "coordinates": [22.9317, 54.0999]}, "properties": {"URAU_CODE": "PL021C", "URAU_CATG": "C", "CNTR_CODE": "PL", "URAU_NAME": "Suwałki", "CITY_CPTL": null, "FUA_CODE": "PL021F", "AREA_SQM": 65504841.9772045, "NUTS3_2021": "PL843", "FID": "PL021C"}, "id": "PL021C"}, {"type": "Feature", "geometry": {"type": "Point", "coordinates": [18.2622, 52.2554]}, "properties": {"URAU_CODE": "PL022C", "URAU_CATG": "C", "CNTR_CODE": "PL", "URAU_NAME": "Konin", "CITY_CPTL": null, "FUA_CODE": "PL022F", "AREA_SQM": 82172152.6307253, "NUTS3_2021": "PL414", "FID": "PL022C"}, "id": "PL022C"}, {"type": "Feature", "geometry": {"type": "Point", "coordinates": [18.6925, 50.0371]}, "properties": {"URAU_CODE": "PL023C", "URAU_CATG": "C", "CNTR_CODE": "PL", "URAU_NAME": "Żory", "CITY_CPTL": null, "FUA_CODE": "PL030F", "AREA_SQM": 64649303.9443205, "NUTS3_2021": "PL227", "FID": "PL023C"}, "id": "PL023C"}, {"type": "Feature", "geometry": {"type": "Point", "coordinates": [-9.1745, 38.8075]}, "properties": {"URAU_CODE": "PT001C", "URAU_CATG": "C", "CNTR_CODE": "PT", "URAU_NAME": "Lisboa", "CITY_CPTL": "Y", "FUA_CODE": "PT001F", "AREA_SQM": 636770797.748457, "NUTS3_2021": "PT170", "FID": "PT001C"}, "id": "PT001C"}, {"type": "Feature", "geometry": {"type": "Point", "coordinates": [21.2049, 45.7549]}, "properties": {"URAU_CODE": "RO003C", "URAU_CATG": "C", "CNTR_CODE": "RO", "URAU_NAME": "Timişoara", "CITY_CPTL": null, "FUA_CODE": "RO003F", "AREA_SQM": 129228194.890261, "NUTS3_2021": "RO424", "FID": "RO003C"}, "id": "RO003C"}, {"type": "Feature", "geometry": {"type": "Point", "coordinates": [23.8068, 44.3185]}, "properties": {"URAU_CODE": "RO004C", "URAU_CATG": "C", "CNTR_CODE": "RO", "URAU_NAME": "Craiova", "CITY_CPTL": null, "FUA_CODE": "RO004F", "AREA_SQM": 81948693.940357, "NUTS3_2021": "RO411", "FID": "RO004C"}, "id": "RO004C"}, {"type": "Feature", "geometry": {"type": "Point", "coordinates": [27.9596, 45.2762]}, "properties": {"URAU_CODE": "RO005C", "URAU_CATG": "C", "CNTR_CODE": "RO", "URAU_NAME": "Brăila", "CITY_CPTL": null, "FUA_CODE": "RO005F", "AREA_SQM": 45427396.453647, "NUTS3_2021": "RO221", "FID": "RO005C"}, "id": "RO005C"}, {"type": "Feature", "geometry": {"type": "Point", "coordinates": [19.1183, 50.8053]}, "properties": {"URAU_CODE": "PL024C", "URAU_CATG": "C", "CNTR_CODE": "PL", "URAU_NAME": "Częstochowa", "CITY_CPTL": null, "FUA_CODE": "PL024F", "AREA_SQM": 159733678.389705, "NUTS3_2021": "PL224", "FID": "PL024C"}, "id": "PL024C"}, {"type": "Feature", "geometry": {"type": "Point", "coordinates": [21.1566, 51.4062]}, "properties": {"URAU_CODE": "PL025C", "URAU_CATG": "C", "CNTR_CODE": "PL", "URAU_NAME": "Radom", "CITY_CPTL": null, "FUA_CODE": "PL025F", "AREA_SQM": 111791235.221946, "NUTS3_2021": "PL921", "FID": "PL025C"}, "id": "PL025C"}, {"type": "Feature", "geometry": {"type": "Point", "coordinates": [19.7016, 52.5376]}, "properties": {"URAU_CODE": "PL026C", "URAU_CATG": "C", "CNTR_CODE": "PL", "URAU_NAME": "Płock", "CITY_CPTL": null, "FUA_CODE": "PL026F", "AREA_SQM": 88053745.2561969, "NUTS3_2021": "PL923", "FID": "PL026C"}, "id": "PL026C"}, {"type": "Feature", "geometry": {"type": "Point", "coordinates": [18.0761, 51.7439]}, "properties": {"URAU_CODE": "PL027C", "URAU_CATG": "C", "CNTR_CODE": "PL", "URAU_NAME": "Kalisz", "CITY_CPTL": null, "FUA_CODE": "PL027F", "AREA_SQM": 69366598.7260556, "NUTS3_2021": "PL416", "FID": "PL027C"}, "id": "PL027C"}, {"type": "Feature", "geometry": {"type": "Point", "coordinates": [26.0879, 44.4412]}, "properties": {"URAU_CODE": "RO001C", "URAU_CATG": "C", "CNTR_CODE": "RO", "URAU_NAME": "Bucureşti", "CITY_CPTL": "Y", "FUA_CODE": "RO001F", "AREA_SQM": 239674041.25126, "NUTS3_2021": "RO321", "FID": "RO001C"}, "id": "RO001C"}, {"type": "Feature", "geometry": {"type": "Point", "coordinates": [23.6102, 46.7828]}, "properties": {"URAU_CODE": "RO002C", "URAU_CATG": "C", "CNTR_CODE": "RO", "URAU_NAME": "Cluj-Napoca", "CITY_CPTL": null, "FUA_CODE": "RO002F", "AREA_SQM": 174879606.487409, "NUTS3_2021": "RO113", "FID": "RO002C"}, "id": "RO002C"}, {"type": "Feature", "geometry": {"type": "Point", "coordinates": [6.0081, 59.2624]}, "properties": {"URAU_CODE": "NO004C", "URAU_CATG": "C", "CNTR_CODE": "NO", "URAU_NAME": "Stavanger", "CITY_CPTL": null, "FUA_CODE": "NO004F", "AREA_SQM": 259862447.661701, "NUTS3_2021": "NO0A1", "FID": "NO004C"}, "id": "NO004C"}, {"type": "Feature", "geometry": {"type": "Point", "coordinates": [21.0477, 52.2293]}, "properties": {"URAU_CODE": "PL001C", "URAU_CATG": "C", "CNTR_CODE": "PL", "URAU_NAME": "Warszawa", "CITY_CPTL": "Y", "FUA_CODE": "PL001F", "AREA_SQM": 517187379.639921, "NUTS3_2021": "PL911", "FID": "PL001C"}, "id": "PL001C"}, {"type": "Feature", "geometry": {"type": "Point", "coordinates": [19.4803, 51.7665]}, "properties": {"URAU_CODE": "PL002C", "URAU_CATG": "C", "CNTR_CODE": "PL", "URAU_NAME": "Łódź", "CITY_CPTL": null, "FUA_CODE": "PL002F", "AREA_SQM": 293268478.640273, "NUTS3_2021": "PL711", "FID": "PL002C"}, "id": "PL002C"}, {"type": "Feature", "geometry": {"type": "Point", "coordinates": [16.1633, 54.2123]}, "properties": {"URAU_CODE": "PL028C", "URAU_CATG": "C", "CNTR_CODE": "PL", "URAU_NAME": "Koszalin", "CITY_CPTL": null, "FUA_CODE": "PL028F", "AREA_SQM": 98350798.1168779, "NUTS3_2021": "PL426", "FID": "PL028C"}, "id": "PL028C"}, {"type": "Feature", "geometry": {"type": "Point", "coordinates": [17.0318, 54.465]}, "properties": {"URAU_CODE": "PL029C", "URAU_CATG": "C", "CNTR_CODE": "PL", "URAU_NAME": "Słupsk", "CITY_CPTL": null, "FUA_CODE": "PL029F", "AREA_SQM": 43152183.2921401, "NUTS3_2021": "PL636", "FID": "PL029C"}, "id": "PL029C"}, {"type": "Feature", "geometry": {"type": "Point", "coordinates": [18.6005, 49.9392]}, "properties": {"URAU_CODE": "PL030C", "URAU_CATG": "C", "CNTR_CODE": "PL", "URAU_NAME": "Jastrzębie-Zdrój", "CITY_CPTL": null, "FUA_CODE": "PL030F", "AREA_SQM": 85332747.9866661, "NUTS3_2021": "PL227", "FID": "PL030C"}, "id": "PL030C"}, {"type": "Feature", "geometry": {"type": "Point", "coordinates": [-8.5555, 41.1305]}, "properties": {"URAU_CODE": "PT002C", "URAU_CATG": "C", "CNTR_CODE": "PT", "URAU_NAME": "Porto", "CITY_CPTL": null, "FUA_CODE": "PT002F", "AREA_SQM": 479324449.143414, "NUTS3_2021": "PT11A", "FID": "PT002C"}, "id": "PT002C"}, {"type": "Feature", "geometry": {"type": "Point", "coordinates": [-8.7395, 41.4126]}, "properties": {"URAU_CODE": "PT013C", "URAU_CATG": "C", "CNTR_CODE": "PT", "URAU_NAME": "Póvoa de Varzim", "CITY_CPTL": null, "FUA_CODE": "PT013F", "AREA_SQM": 82196282.0896722, "NUTS3_2021": "PT11A", "FID": "PT013C"}, "id": "PT013C"}, {"type": "Feature", "geometry": {"type": "Point", "coordinates": [19.9851, 50.0532]}, "properties": {"URAU_CODE": "PL003C", "URAU_CATG": "C", "CNTR_CODE": "PL", "URAU_NAME": "Kraków", "CITY_CPTL": null, "FUA_CODE": "PL003F", "AREA_SQM": 326845172.407181, "NUTS3_2021": "PL213", "FID": "PL003C"}, "id": "PL003C"}, {"type": "Feature", "geometry": {"type": "Point", "coordinates": [22.2712, 52.1651]}, "properties": {"URAU_CODE": "PL031C", "URAU_CATG": "C", "CNTR_CODE": "PL", "URAU_NAME": "Siedlce", "CITY_CPTL": null, "FUA_CODE": "PL031F", "AREA_SQM": 31841991.0241577, "NUTS3_2021": "PL925", "FID": "PL031C"}, "id": "PL031C"}, {"type": "Feature", "geometry": {"type": "Point", "coordinates": [4.3476, 43.8446]}, "properties": {"URAU_CODE": "FR028C", "URAU_CATG": "C", "CNTR_CODE": "FR", "URAU_NAME": "Nîmes", "CITY_CPTL": null, "FUA_CODE": "FR028F", "AREA_SQM": 161110151.01326, "NUTS3_2021": "FRJ12", "FID": "FR028C"}, "id": "FR028C"}, {"type": "Feature", "geometry": {"type": "Point", "coordinates": [0.2008, 47.9918]}, "properties": {"URAU_CODE": "FR029C", "URAU_CATG": "C", "CNTR_CODE": "FR", "URAU_NAME": "Le Mans", "CITY_CPTL": null, "FUA_CODE": "FR029F", "AREA_SQM": 56624915.134167, "NUTS3_2021": "FRG04", "FID": "FR029C"}, "id": "FR029C"}, {"type": "Feature", "geometry": {"type": "Point", "coordinates": [55.447, -20.933]}, "properties": {"URAU_CODE": "FR030C", "URAU_CATG": "C", "CNTR_CODE": "FR", "URAU_NAME": "Saint-Denis", "CITY_CPTL": null, "FUA_CODE": "FR030F", "AREA_SQM": 141540600.175878, "NUTS3_2021": "FRY40", "FID": "FR030C"}, "id": "FR030C"}, {"type": "Feature", "geometry": {"type": "Point", "coordinates": [25.9982, 65.1318]}, "properties": {"URAU_CODE": "FI004C", "URAU_CATG": "C", "CNTR_CODE": "FI", "URAU_NAME": "Oulu/Uleåborg", "CITY_CPTL": null, "FUA_CODE": "FI004F", "AREA_SQM": 3046214802.24975, "NUTS3_2021": "FI1D9", "FID": "FI004C"}, "id": "FI004C"}, {"type": "Feature", "geometry": {"type": "Point", "coordinates": [-0.3393, 49.1758]}, "properties": {"URAU_CODE": "FR031C", "URAU_CATG": "C", "CNTR_CODE": "FR", "URAU_NAME": "Caen", "CITY_CPTL": null, "FUA_CODE": "FR031F", "AREA_SQM": 88157040.6537426, "NUTS3_2021": "FRD11", "FID": "FR031C"}, "id": "FR031C"}, {"type": "Feature", "geometry": {"type": "Point", "coordinates": [1.2572, 45.8294]}, "properties": {"URAU_CODE": "FR032C", "URAU_CATG": "C", "CNTR_CODE": "FR", "URAU_NAME": "Limoges", "CITY_CPTL": null, "FUA_CODE": "FR032F", "AREA_SQM": 99995659.2900917, "NUTS3_2021": "FRI23", "FID": "FR032C"}, "id": "FR032C"}, {"type": "Feature", "geometry": {"type": "Point", "coordinates": [5.3986, 43.5361]}, "properties": {"URAU_CODE": "FR033C", "URAU_CATG": "C", "CNTR_CODE": "FR", "URAU_NAME": "Aix-en-Provence", "CITY_CPTL": null, "FUA_CODE": "FR004F", "AREA_SQM": 187419832.086869, "NUTS3_2021": "FRL04", "FID": "FR033C"}, "id": "FR033C"}, {"type": "Feature", "geometry": {"type": "Point", "coordinates": [15.2457, 44.1428]}, "properties": {"URAU_CODE": "HR007C", "URAU_CATG": "C", "CNTR_CODE": "HR", "URAU_NAME": "Zadar", "CITY_CPTL": null, "FUA_CODE": "HR007F", "AREA_SQM": 192803955.023714, "NUTS3_2021": "HR033", "FID": "HR007C"}, "id": "HR007C"}, {"type": "Feature", "geometry": {"type": "Point", "coordinates": [19.1076, 47.4839]}, "properties": {"URAU_CODE": "HU001C", "URAU_CATG": "C", "CNTR_CODE": "HU", "URAU_NAME": "Budapest", "CITY_CPTL": "Y", "FUA_CODE": "HU001F", "AREA_SQM": 525184871.197541, "NUTS3_2021": "HU110", "FID": "HU001C"}, "id": "HU001C"}, {"type": "Feature", "geometry": {"type": "Point", "coordinates": [14.1929, 40.9185]}, "properties": {"URAU_CODE": "IT003C", "URAU_CATG": "C", "CNTR_CODE": "IT", "URAU_NAME": "Napoli", "CITY_CPTL": null, "FUA_CODE": "IT003F", "AREA_SQM": 835029442.549989, "NUTS3_2021": "ITF33", "FID": "IT003C"}, "id": "IT003C"}, {"type": "Feature", "geometry": {"type": "Point", "coordinates": [7.6779, 45.0716]}, "properties": {"URAU_CODE": "IT004C", "URAU_CATG": "C", "CNTR_CODE": "IT", "URAU_NAME": "Torino", "CITY_CPTL": null, "FUA_CODE": "IT004F", "AREA_SQM": 130077547.432684, "NUTS3_2021": "ITC11", "FID": "IT004C"}, "id": "IT004C"}, {"type": "Feature", "geometry": {"type": "Point", "coordinates": [24.5865, 60.2447]}, "properties": {"URAU_CODE": "FI005C", "URAU_CATG": "C", "CNTR_CODE": "FI", "URAU_NAME": "Espoo/Esbo", "CITY_CPTL": null, "FUA_CODE": "FI001F", "AREA_SQM": 327057060.757237, "NUTS3_2021": "FI1B1", "FID": "FI005C"}, "id": "FI005C"}, {"type": "Feature", "geometry": {"type": "Point", "coordinates": [-4.5345, 48.3798]}, "properties": {"URAU_CODE": "FR034C", "URAU_CATG": "C", "CNTR_CODE": "FR", "URAU_NAME": "Brest", "CITY_CPTL": null, "FUA_CODE": "FR034F", "AREA_SQM": 48726984.2336719, "NUTS3_2021": "FRH02", "FID": "FR034C"}, "id": "FR034C"}, {"type": "Feature", "geometry": {"type": "Point", "coordinates": [2.3105, 49.9002]}, "properties": {"URAU_CODE": "FR035C", "URAU_CATG": "C", "CNTR_CODE": "FR", "URAU_NAME": "Amiens", "CITY_CPTL": null, "FUA_CODE": "FR035F", "AREA_SQM": 73266294.3415113, "NUTS3_2021": "FRE23", "FID": "FR035C"}, "id": "FR035C"}, {"type": "Feature", "geometry": {"type": "Point", "coordinates": [2.3183, 51.0245]},